<?xml version="1.0" encoding="UTF-8"?>
<xml>
  <MountainPeaks>
    <Peak>
      <Name>Aiguille de l'A Neuve</Name>
      <Longitude>7.03665201516</Longitude>
      <Latitude>45.9525822666</Latitude>
      <Altitude>3753</Altitude>
      <Canton>VS/F</Canton>
    </Peak>
    <Peak>
      <Name>Aabenhoren</Name>
      <Longitude>7.85654920001</Longitude>
      <Latitude>46.5269875919</Latitude>
      <Altitude>2149</Altitude>
      <Canton>BE</Canton>
    </Peak>
    <Peak>
      <Name>Aachchübel</Name>
      <Longitude>9.7601180502</Longitude>
      <Latitude>46.8338763808</Latitude>
      <Altitude>2495</Altitude>
      <Canton>GR</Canton>
    </Peak>
    <Peak>
      <Name>Abendberg</Name>
      <Longitude>7.52480767071</Longitude>
      <Latitude>46.6220415895</Latitude>
      <Altitude>1852</Altitude>
      <Canton>BE</Canton>
    </Peak>
    <Peak>
      <Name>Abgschütz</Name>
      <Longitude>8.23400558769</Longitude>
      <Latitude>46.7801451776</Latitude>
      <Altitude>2263</Altitude>
      <Canton>OW</Canton>
    </Peak>
    <Peak>
      <Name>Pointes d'Aboillon</Name>
      <Longitude>6.93591242778</Longitude>
      <Latitude>46.1229588262</Latitude>
      <Altitude>2969</Altitude>
      <Canton>VS</Canton>
    </Peak>
    <Peak>
      <Name>Pierre qu'Abotse</Name>
      <Longitude>7.15363772682</Longitude>
      <Latitude>46.2597321331</Latitude>
      <Altitude>2735</Altitude>
      <Canton>VD</Canton>
    </Peak>
    <Peak>
      <Name>Abschwunghorn</Name>
      <Longitude>8.16524880661</Longitude>
      <Latitude>46.5658259919</Latitude>
      <Altitude>3134</Altitude>
      <Canton>BE</Canton>
    </Peak>
    <Peak>
      <Name>Chli Achslenstock</Name>
      <Longitude>8.73756475054</Longitude>
      <Latitude>46.9445295788</Latitude>
      <Altitude>2020</Altitude>
      <Canton>SZ</Canton>
    </Peak>
    <Peak>
      <Name>Gross Achslenstock</Name>
      <Longitude>8.74173994751</Longitude>
      <Latitude>46.9433576147</Latitude>
      <Altitude>2175</Altitude>
      <Canton>SZ</Canton>
    </Peak>
    <Peak>
      <Name>Grand Acle</Name>
      <Longitude>7.36163494229</Longitude>
      <Latitude>46.0057168067</Latitude>
      <Altitude>3052</Altitude>
      <Canton>VS</Canton>
    </Peak>
    <Peak>
      <Name>Piz Acletta</Name>
      <Longitude>8.79949168942</Longitude>
      <Latitude>46.7314434631</Latitude>
      <Altitude>2912</Altitude>
      <Canton>GR/UR</Canton>
    </Peak>
    <Peak>
      <Name>Piz da l'Acqua</Name>
      <Longitude>10.1388892287</Longitude>
      <Latitude>46.6111534599</Latitude>
      <Altitude>3118</Altitude>
      <Canton>GR/I</Canton>
    </Peak>
    <Peak>
      <Name>Piz da l'Acqua</Name>
      <Longitude>10.1388892287</Longitude>
      <Latitude>46.6111534599</Latitude>
      <Altitude>3126</Altitude>
      <Canton>GR/I</Canton>
    </Peak>
    <Peak>
      <Name>Adlerflüe</Name>
      <Longitude>7.69845659628</Longitude>
      <Latitude>46.1468978598</Latitude>
      <Altitude>2913</Altitude>
      <Canton>VS</Canton>
    </Peak>
    <Peak>
      <Name>Adlerhorn</Name>
      <Longitude>7.88899879184</Longitude>
      <Latitude>46.0091606909</Latitude>
      <Altitude>3988</Altitude>
      <Canton>VS</Canton>
    </Peak>
    <Peak>
      <Name>Adlerspitza</Name>
      <Longitude>7.79335028765</Longitude>
      <Latitude>46.3697324028</Latitude>
      <Altitude>3243</Altitude>
      <Canton>VS</Canton>
    </Peak>
    <Peak>
      <Name>Adlisberg</Name>
      <Longitude>8.59427388759</Longitude>
      <Latitude>47.3702151993</Latitude>
      <Altitude>701</Altitude>
      <Canton>ZH</Canton>
    </Peak>
    <Peak>
      <Name>Aelgäuhorn</Name>
      <Longitude>7.97264478314</Longitude>
      <Latitude>46.7682622398</Latitude>
      <Altitude>2047</Altitude>
      <Canton>BE</Canton>
    </Peak>
    <Peak>
      <Name>Aermighorn</Name>
      <Longitude>7.71351722266</Longitude>
      <Latitude>46.5415914407</Latitude>
      <Altitude>2742</Altitude>
      <Canton>BE</Canton>
    </Peak>
    <Peak>
      <Name>Ätschberg</Name>
      <Longitude>9.3154551412</Longitude>
      <Latitude>47.434791499</Latitude>
      <Altitude>906</Altitude>
      <Canton>SG</Canton>
    </Peak>
    <Peak>
      <Name>Ättenberg</Name>
      <Longitude>7.32706519204</Longitude>
      <Latitude>46.6889014135</Latitude>
      <Altitude>1604</Altitude>
      <Canton>FR</Canton>
    </Peak>
    <Peak>
      <Name>Aeugsterberg</Name>
      <Longitude>8.48731592443</Longitude>
      <Latitude>47.2739521753</Latitude>
      <Altitude>829</Altitude>
      <Canton>ZH</Canton>
    </Peak>
    <Peak>
      <Name>Aff</Name>
      <Longitude>7.88423586656</Longitude>
      <Latitude>46.7872621734</Latitude>
      <Altitude>2036</Altitude>
      <Canton>BE</Canton>
    </Peak>
    <Peak>
      <Name>Agassizhorn</Name>
      <Longitude>8.11440184427</Longitude>
      <Latitude>46.5466181533</Latitude>
      <Altitude>3953</Altitude>
      <Canton>BE/VS</Canton>
    </Peak>
    <Peak>
      <Name>Becca d'Aget</Name>
      <Longitude>7.31255758634</Longitude>
      <Latitude>46.0717440395</Latitude>
      <Altitude>2982</Altitude>
      <Canton>VS</Canton>
    </Peak>
    <Peak>
      <Name>Grand Aget</Name>
      <Longitude>7.23655312169</Longitude>
      <Latitude>46.003897707</Latitude>
      <Altitude>3133</Altitude>
      <Canton>VS</Canton>
    </Peak>
    <Peak>
      <Name>Aggenstein</Name>
      <Longitude>10.5591647225</Longitude>
      <Latitude>47.5364376673</Latitude>
      <Altitude>1987</Altitude>
      <Canton>A</Canton>
    </Peak>
    <Peak>
      <Name>Piz d'Agnel</Name>
      <Longitude>9.7022918796</Longitude>
      <Latitude>46.511377894</Latitude>
      <Altitude>3205</Altitude>
      <Canton>GR</Canton>
    </Peak>
    <Peak>
      <Name>Piz di Agnon</Name>
      <Longitude>9.21787131797</Longitude>
      <Latitude>46.2429498187</Latitude>
      <Altitude>2208</Altitude>
      <Canton>GR</Canton>
    </Peak>
    <Peak>
      <Name>Aguagliouls</Name>
      <Longitude>9.85779688402</Longitude>
      <Latitude>46.3946391331</Latitude>
      <Altitude>2770</Altitude>
      <Canton>GR</Canton>
    </Peak>
    <Peak>
      <Name>Piz Aguagliouls</Name>
      <Longitude>9.86177592182</Longitude>
      <Latitude>46.3876242194</Latitude>
      <Altitude>3118</Altitude>
      <Canton>GR</Canton>
    </Peak>
    <Peak>
      <Name>Crast'Agüzza</Name>
      <Longitude>9.91697566222</Longitude>
      <Latitude>46.3703203861</Latitude>
      <Altitude>3854</Altitude>
      <Canton>GR/I</Canton>
    </Peak>
    <Peak>
      <Name>Tour d'Aï</Name>
      <Longitude>7.0019675565</Longitude>
      <Latitude>46.3721001473</Latitude>
      <Altitude>2331</Altitude>
      <Canton>VD</Canton>
    </Peak>
    <Peak>
      <Name>Grande Aiguille</Name>
      <Longitude>7.2648638799</Longitude>
      <Latitude>45.9503774851</Latitude>
      <Altitude>3682</Altitude>
      <Canton>VS</Canton>
    </Peak>
    <Peak>
      <Name>L'Aiguille</Name>
      <Longitude>7.12112494579</Longitude>
      <Latitude>46.1749965936</Latitude>
      <Altitude>2412</Altitude>
      <Canton>VD</Canton>
    </Peak>
    <Peak>
      <Name>L'Aiguille</Name>
      <Longitude>7.12112494579</Longitude>
      <Latitude>46.1749965936</Latitude>
      <Altitude>2440</Altitude>
      <Canton>VS</Canton>
    </Peak>
    <Peak>
      <Name>Petite Aiguille</Name>
      <Longitude>7.27384969665</Longitude>
      <Latitude>45.9426999922</Latitude>
      <Altitude>3517</Altitude>
      <Canton>VS</Canton>
    </Peak>
    <Peak>
      <Name>L'Aiguillette</Name>
      <Longitude>7.45398105898</Longitude>
      <Latitude>45.9419200822</Latitude>
      <Altitude>3199</Altitude>
      <Canton>VS</Canton>
    </Peak>
    <Peak>
      <Name>Cima d'Aion</Name>
      <Longitude>9.16212130077</Longitude>
      <Latitude>46.3375698738</Latitude>
      <Altitude>2533</Altitude>
      <Canton>GR</Canton>
    </Peak>
    <Peak>
      <Name>Ganne d'Airòld</Name>
      <Longitude>9.00509258751</Longitude>
      <Latitude>46.3655376351</Latitude>
      <Altitude>2055</Altitude>
      <Canton>TI</Canton>
    </Peak>
    <Peak>
      <Name>Mot Ajüz</Name>
      <Longitude>10.3469666431</Longitude>
      <Latitude>46.7857886155</Latitude>
      <Altitude>2295</Altitude>
      <Canton>GR</Canton>
    </Peak>
    <Peak>
      <Name>Piz Ajüz</Name>
      <Longitude>10.3572715853</Longitude>
      <Latitude>46.778864324</Latitude>
      <Altitude>2755</Altitude>
      <Canton>GR</Canton>
    </Peak>
    <Peak>
      <Name>Piz Ajüz</Name>
      <Longitude>10.3572715853</Longitude>
      <Latitude>46.778864324</Latitude>
      <Altitude>2788</Altitude>
      <Canton>GR</Canton>
    </Peak>
    <Peak>
      <Name>Piz Albana Pitschen</Name>
      <Longitude>9.78276457567</Longitude>
      <Latitude>46.4838719556</Latitude>
      <Altitude>2909</Altitude>
      <Canton>GR</Canton>
    </Peak>
    <Peak>
      <Name>Piz Albana</Name>
      <Longitude>9.77359372935</Longitude>
      <Latitude>46.4811810509</Latitude>
      <Altitude>3100</Altitude>
      <Canton>GR</Canton>
    </Peak>
    <Peak>
      <Name>Monte Albano</Name>
      <Longitude>9.13532892269</Longitude>
      <Latitude>46.1535221848</Latitude>
      <Altitude>2027</Altitude>
      <Canton>TI/I</Canton>
    </Peak>
    <Peak>
      <Name>Pizzo Albèr</Name>
      <Longitude>8.6902260026</Longitude>
      <Latitude>46.3164606273</Latitude>
      <Altitude>2219</Altitude>
      <Canton>TI</Canton>
    </Peak>
    <Peak>
      <Name>Punta da l'Albigna</Name>
      <Longitude>9.66101579336</Longitude>
      <Latitude>46.320374561</Latitude>
      <Altitude>2824</Altitude>
      <Canton>GR</Canton>
    </Peak>
    <Peak>
      <Name>Albis</Name>
      <Longitude>8.53753194343</Longitude>
      <Latitude>47.2575176235</Latitude>
      <Altitude>915</Altitude>
      <Canton>ZH</Canton>
    </Peak>
    <Peak>
      <Name>Albishorn</Name>
      <Longitude>8.54466255971</Longitude>
      <Latitude>47.2509276925</Latitude>
      <Altitude>909</Altitude>
      <Canton>ZH</Canton>
    </Peak>
    <Peak>
      <Name>Crasta d'Albris</Name>
      <Longitude>9.96926307099</Longitude>
      <Latitude>46.4599324078</Latitude>
      <Altitude>3032</Altitude>
      <Canton>GR</Canton>
    </Peak>
    <Peak>
      <Name>Piz Albris</Name>
      <Longitude>9.96358872403</Longitude>
      <Latitude>46.463928923</Latitude>
      <Altitude>3166</Altitude>
      <Canton>GR</Canton>
    </Peak>
    <Peak>
      <Name>Albristhorn</Name>
      <Longitude>7.48930848866</Longitude>
      <Latitude>46.4971141621</Latitude>
      <Altitude>2763</Altitude>
      <Canton>BE</Canton>
    </Peak>
    <Peak>
      <Name>Albristhubel</Name>
      <Longitude>7.45941945504</Longitude>
      <Latitude>46.512011292</Latitude>
      <Altitude>2124</Altitude>
      <Canton>BE</Canton>
    </Peak>
    <Peak>
      <Name>Albrunhorn</Name>
      <Longitude>8.283460509</Longitude>
      <Latitude>46.363676296</Latitude>
      <Altitude>2885</Altitude>
      <Canton>VS/I</Canton>
    </Peak>
    <Peak>
      <Name>Aletschhorn</Name>
      <Longitude>7.99374422431</Longitude>
      <Latitude>46.4651389832</Latitude>
      <Altitude>4195</Altitude>
      <Canton>VS</Canton>
    </Peak>
    <Peak>
      <Name>Kleines Aletschhorn</Name>
      <Longitude>7.9769081891</Longitude>
      <Latitude>46.467468973</Latitude>
      <Altitude>3755</Altitude>
      <Canton>VS</Canton>
    </Peak>
    <Peak>
      <Name>Hinter Allalin</Name>
      <Longitude>7.92058830425</Longitude>
      <Latitude>46.0632283912</Latitude>
      <Altitude>3332</Altitude>
      <Canton>VS</Canton>
    </Peak>
    <Peak>
      <Name>Kleines Allalin</Name>
      <Longitude>7.93735489318</Longitude>
      <Latitude>46.0596022088</Latitude>
      <Altitude>3070</Altitude>
      <Canton>VS</Canton>
    </Peak>
    <Peak>
      <Name>Mittel Allalin</Name>
      <Longitude>7.90790007183</Longitude>
      <Latitude>46.0604482925</Latitude>
      <Altitude>3460</Altitude>
      <Canton>VS</Canton>
    </Peak>
    <Peak>
      <Name>Allalinhorn</Name>
      <Longitude>7.89466370111</Longitude>
      <Latitude>46.0460197042</Latitude>
      <Altitude>4027</Altitude>
      <Canton>VS</Canton>
    </Peak>
    <Peak>
      <Name>Pointe d'Allèves</Name>
      <Longitude>7.37800705439</Longitude>
      <Latitude>46.0841220053</Latitude>
      <Altitude>3046</Altitude>
      <Canton>VS</Canton>
    </Peak>
    <Peak>
      <Name>Allmegrat</Name>
      <Longitude>7.63462813443</Longitude>
      <Latitude>46.5010045093</Latitude>
      <Altitude>2530</Altitude>
      <Canton>BE</Canton>
    </Peak>
    <Peak>
      <Name>Pointe Allobrogia</Name>
      <Longitude>7.06448124483</Longitude>
      <Latitude>45.9094103926</Latitude>
      <Altitude>3172</Altitude>
      <Canton>VS/I</Canton>
    </Peak>
    <Peak>
      <Name>Almagellhorn</Name>
      <Longitude>7.99429552636</Longitude>
      <Latitude>46.0869077373</Latitude>
      <Altitude>3327</Altitude>
      <Canton>VS</Canton>
    </Peak>
    <Peak>
      <Name>Poncione d'Alnasca</Name>
      <Longitude>8.82367159736</Longitude>
      <Latitude>46.2921448396</Latitude>
      <Altitude>2301</Altitude>
      <Canton>TI</Canton>
    </Peak>
    <Peak>
      <Name>Piz d'Alp Val</Name>
      <Longitude>9.74288066593</Longitude>
      <Latitude>46.5569541777</Latitude>
      <Altitude>3053</Altitude>
      <Canton>GR</Canton>
    </Peak>
    <Peak>
      <Name>Spi da l'Alp Vedra</Name>
      <Longitude>10.4016431797</Longitude>
      <Latitude>46.9148183865</Latitude>
      <Altitude>2588</Altitude>
      <Canton>GR</Canton>
    </Peak>
    <Peak>
      <Name>Motta d'Alp</Name>
      <Longitude>10.444971777</Longitude>
      <Latitude>46.8968094212</Latitude>
      <Altitude>2109</Altitude>
      <Canton>GR</Canton>
    </Peak>
    <Peak>
      <Name>Alpbüel</Name>
      <Longitude>9.76506180104</Longitude>
      <Latitude>46.9482015191</Latitude>
      <Altitude>2022</Altitude>
      <Canton>GR</Canton>
    </Peak>
    <Peak>
      <Name>Pizzo dell'Alpe Gelato</Name>
      <Longitude>8.44303904225</Longitude>
      <Latitude>46.2512699794</Latitude>
      <Altitude>2613</Altitude>
      <Canton>TI/I</Canton>
    </Peak>
    <Peak>
      <Name>Alpelenhörnli</Name>
      <Longitude>8.35439823869</Longitude>
      <Latitude>46.8022284032</Latitude>
      <Altitude>2026</Altitude>
      <Canton>NW</Canton>
    </Peak>
    <Peak>
      <Name>Alpeler</Name>
      <Longitude>8.49051955086</Longitude>
      <Latitude>46.8963708692</Latitude>
      <Altitude>1855</Altitude>
      <Canton>UR</Canton>
    </Peak>
    <Peak>
      <Name>Alperschällihorn</Name>
      <Longitude>9.30710081973</Longitude>
      <Latitude>46.5868145269</Latitude>
      <Altitude>3039</Altitude>
      <Canton>GR</Canton>
    </Peak>
    <Peak>
      <Name>Alpetlistock</Name>
      <Longitude>9.31329763136</Longitude>
      <Latitude>46.5152222433</Latitude>
      <Altitude>2393</Altitude>
      <Canton>GR</Canton>
    </Peak>
    <Peak>
      <Name>Fil d'Alpetta</Name>
      <Longitude>8.74251256081</Longitude>
      <Latitude>46.63957706</Latitude>
      <Altitude>2585</Altitude>
      <Canton>GR</Canton>
    </Peak>
    <Peak>
      <Name>Piz Alpetta</Name>
      <Longitude>8.87096857856</Longitude>
      <Latitude>46.7475280166</Latitude>
      <Altitude>2845</Altitude>
      <Canton>GR</Canton>
    </Peak>
    <Peak>
      <Name>Piz Alpetta</Name>
      <Longitude>8.87096857856</Longitude>
      <Latitude>46.7475280166</Latitude>
      <Altitude>2975</Altitude>
      <Canton>GR</Canton>
    </Peak>
    <Peak>
      <Name>Piz Alpetta</Name>
      <Longitude>8.87096857856</Longitude>
      <Latitude>46.7475280166</Latitude>
      <Altitude>2764</Altitude>
      <Canton>GR</Canton>
    </Peak>
    <Peak>
      <Name>Piz Alpettas</Name>
      <Longitude>9.04167067373</Longitude>
      <Latitude>46.58978328</Latitude>
      <Altitude>2979</Altitude>
      <Canton>GR/TI</Canton>
    </Peak>
    <Peak>
      <Name>Les Alpettes</Name>
      <Longitude>6.96738365894</Longitude>
      <Latitude>46.5759408493</Latitude>
      <Altitude>1413</Altitude>
      <Canton>FR</Canton>
    </Peak>
    <Peak>
      <Name>Alpgnofer Stock</Name>
      <Longitude>8.78616502054</Longitude>
      <Latitude>46.8055550114</Latitude>
      <Altitude>2767</Altitude>
      <Canton>UR</Canton>
    </Peak>
    <Peak>
      <Name>Alphubel</Name>
      <Longitude>7.86392116103</Longitude>
      <Latitude>46.0631415098</Latitude>
      <Altitude>4206</Altitude>
      <Canton>VS</Canton>
    </Peak>
    <Peak>
      <Name>Alpiglemären</Name>
      <Longitude>7.41536734151</Longitude>
      <Latitude>46.6916972392</Latitude>
      <Altitude>2096</Altitude>
      <Canton>BE</Canton>
    </Peak>
    <Peak>
      <Name>Alpjuhorn</Name>
      <Longitude>7.90866566254</Longitude>
      <Latitude>46.3672889712</Latitude>
      <Altitude>3144</Altitude>
      <Canton>VS</Canton>
    </Peak>
    <Peak>
      <Name>Alpler Horn</Name>
      <Longitude>8.80809978508</Longitude>
      <Latitude>46.9107356678</Latitude>
      <Altitude>2380</Altitude>
      <Canton>UR</Canton>
    </Peak>
    <Peak>
      <Name>Alpler Stock</Name>
      <Longitude>8.82430657442</Longitude>
      <Latitude>46.9079316571</Latitude>
      <Altitude>2093</Altitude>
      <Canton>UR</Canton>
    </Peak>
    <Peak>
      <Name>Alpligerstock</Name>
      <Longitude>8.33777218994</Longitude>
      <Latitude>46.747979464</Latitude>
      <Altitude>2067</Altitude>
      <Canton>BE</Canton>
    </Peak>
    <Peak>
      <Name>Alplighorn</Name>
      <Longitude>7.73613739459</Longitude>
      <Latitude>46.3875734683</Latitude>
      <Altitude>2329</Altitude>
      <Canton>VS</Canton>
    </Peak>
    <Peak>
      <Name>Alplistock</Name>
      <Longitude>8.28198256962</Longitude>
      <Latitude>46.5949327347</Latitude>
      <Altitude>2877</Altitude>
      <Canton>BE</Canton>
    </Peak>
    <Peak>
      <Name>Alpschelehubel</Name>
      <Longitude>7.64466996489</Longitude>
      <Latitude>46.4867736341</Latitude>
      <Altitude>2248</Altitude>
      <Canton>BE</Canton>
    </Peak>
    <Peak>
      <Name>Alpstein</Name>
      <Longitude>9.60042636082</Longitude>
      <Latitude>46.7952988225</Latitude>
      <Altitude>2298</Altitude>
      <Canton>GR</Canton>
    </Peak>
    <Peak>
      <Name>Motte Alte</Name>
      <Longitude>8.80511588892</Longitude>
      <Latitude>46.4317784476</Latitude>
      <Altitude>2015</Altitude>
      <Canton>TI</Canton>
    </Peak>
    <Peak>
      <Name>Altein</Name>
      <Longitude>9.72121967781</Longitude>
      <Latitude>46.7422827004</Latitude>
      <Altitude>2405</Altitude>
      <Canton>GR</Canton>
    </Peak>
    <Peak>
      <Name>Alteingrat</Name>
      <Longitude>9.74316844522</Longitude>
      <Latitude>46.7397266249</Latitude>
      <Altitude>2378</Altitude>
      <Canton>GR</Canton>
    </Peak>
    <Peak>
      <Name>Altels</Name>
      <Longitude>7.67860097415</Longitude>
      <Latitude>46.4289549047</Latitude>
      <Altitude>3629</Altitude>
      <Canton>BE</Canton>
    </Peak>
    <Peak>
      <Name>Altenalp Türm</Name>
      <Longitude>9.37849425561</Longitude>
      <Latitude>47.270768248</Latitude>
      <Altitude>2033</Altitude>
      <Canton>AI</Canton>
    </Peak>
    <Peak>
      <Name>Altenorenstock</Name>
      <Longitude>8.94125929089</Longitude>
      <Latitude>46.86039211</Latitude>
      <Altitude>2458</Altitude>
      <Canton>GL</Canton>
    </Peak>
    <Peak>
      <Name>Altmann</Name>
      <Longitude>9.37154702835</Longitude>
      <Latitude>47.2395291802</Latitude>
      <Altitude>3460</Altitude>
      <Canton>BE/VS</Canton>
    </Peak>
    <Peak>
      <Name>Altmann</Name>
      <Longitude>9.37154702835</Longitude>
      <Latitude>47.2395291802</Latitude>
      <Altitude>2436</Altitude>
      <Canton>AI/SG</Canton>
    </Peak>
    <Peak>
      <Name>Pian Alto</Name>
      <Longitude>8.66526856977</Longitude>
      <Latitude>46.536793212</Latitude>
      <Altitude>2239</Altitude>
      <Canton>TI</Canton>
    </Peak>
    <Peak>
      <Name>Pizzo Alto</Name>
      <Longitude>8.88471511882</Longitude>
      <Latitude>46.4450525668</Latitude>
      <Altitude>2356</Altitude>
      <Canton>TI</Canton>
    </Peak>
    <Peak>
      <Name>Torent Alto</Name>
      <Longitude>9.0715003313</Longitude>
      <Latitude>46.3436810594</Latitude>
      <Altitude>2952</Altitude>
      <Canton>GR/TI</Canton>
    </Peak>
    <Peak>
      <Name>Torrone Alto</Name>
      <Longitude>9.0715003313</Longitude>
      <Latitude>46.3436810594</Latitude>
      <Altitude>2952</Altitude>
      <Canton>GR/TI</Canton>
    </Peak>
    <Peak>
      <Name>Altstafelhorn</Name>
      <Longitude>7.74650383132</Longitude>
      <Latitude>46.2555342292</Latitude>
      <Altitude>2911</Altitude>
      <Canton>VS</Canton>
    </Peak>
    <Peak>
      <Name>Corn Alv</Name>
      <Longitude>9.71696356517</Longitude>
      <Latitude>46.4945257122</Latitude>
      <Altitude>2980</Altitude>
      <Canton>GR</Canton>
    </Peak>
    <Peak>
      <Name>Crap Alv</Name>
      <Longitude>9.73500459675</Longitude>
      <Latitude>46.4989770637</Latitude>
      <Altitude>2291</Altitude>
      <Canton>GR</Canton>
    </Peak>
    <Peak>
      <Name>Crap Alv</Name>
      <Longitude>9.73500459675</Longitude>
      <Latitude>46.4989770637</Latitude>
      <Altitude>2537</Altitude>
      <Canton>GR</Canton>
    </Peak>
    <Peak>
      <Name>Crap Alv</Name>
      <Longitude>9.73500459675</Longitude>
      <Latitude>46.4989770637</Latitude>
      <Altitude>2832</Altitude>
      <Canton>GR</Canton>
    </Peak>
    <Peak>
      <Name>Piz Alv</Name>
      <Longitude>9.99949687277</Longitude>
      <Latitude>46.4493086899</Latitude>
      <Altitude>2769</Altitude>
      <Canton>GR/TI/UR</Canton>
    </Peak>
    <Peak>
      <Name>Piz Alv</Name>
      <Longitude>9.99949687277</Longitude>
      <Latitude>46.4493086899</Latitude>
      <Altitude>2855</Altitude>
      <Canton>GR</Canton>
    </Peak>
    <Peak>
      <Name>Piz Alv</Name>
      <Longitude>9.99949687277</Longitude>
      <Latitude>46.4493086899</Latitude>
      <Altitude>2975</Altitude>
      <Canton>GR</Canton>
    </Peak>
    <Peak>
      <Name>Piz dal Lej Alv</Name>
      <Longitude>9.8149832072</Longitude>
      <Latitude>46.3867700323</Latitude>
      <Altitude>3197</Altitude>
      <Canton>GR</Canton>
    </Peak>
    <Peak>
      <Name>Sass Alv</Name>
      <Longitude>9.84248019167</Longitude>
      <Latitude>46.5406272356</Latitude>
      <Altitude>2510</Altitude>
      <Canton>GR</Canton>
    </Peak>
    <Peak>
      <Name>Alvensberg</Name>
      <Longitude>9.01093392361</Longitude>
      <Latitude>47.4157181214</Latitude>
      <Altitude>848</Altitude>
      <Canton>SG</Canton>
    </Peak>
    <Peak>
      <Name>Alvier</Name>
      <Longitude>9.41470728512</Longitude>
      <Latitude>47.1098604285</Latitude>
      <Altitude>2343</Altitude>
      <Canton>SG</Canton>
    </Peak>
    <Peak>
      <Name>Chli Alvier</Name>
      <Longitude>9.40939122845</Longitude>
      <Latitude>47.1104466019</Latitude>
      <Altitude>2285</Altitude>
      <Canton>SG</Canton>
    </Peak>
    <Peak>
      <Name>Pizzo Alzasca</Name>
      <Longitude>8.57605598801</Longitude>
      <Latitude>46.277360228</Latitude>
      <Altitude>2262</Altitude>
      <Canton>TI</Canton>
    </Peak>
    <Peak>
      <Name>Mot da las Amblanas</Name>
      <Longitude>10.3929328342</Longitude>
      <Latitude>46.8914141682</Latitude>
      <Altitude>2783</Altitude>
      <Canton>GR</Canton>
    </Peak>
    <Peak>
      <Name>Amelier</Name>
      <Longitude>7.24449211098</Longitude>
      <Latitude>46.5494041694</Latitude>
      <Altitude>2002</Altitude>
      <Canton>BE</Canton>
    </Peak>
    <Peak>
      <Name>Aiguille d'Amiante</Name>
      <Longitude>7.29305510359</Longitude>
      <Latitude>45.9210477858</Latitude>
      <Altitude>3563</Altitude>
      <Canton>VS/I</Canton>
    </Peak>
    <Peak>
      <Name>Monte Amianto</Name>
      <Longitude>9.00714823147</Longitude>
      <Latitude>46.5154510205</Latitude>
      <Altitude>2639</Altitude>
      <Canton>TI</Canton>
    </Peak>
    <Peak>
      <Name>Mont d'Amin</Name>
      <Longitude>6.90676447373</Longitude>
      <Latitude>47.082752594</Latitude>
      <Altitude>1417</Altitude>
      <Canton>NE</Canton>
    </Peak>
    <Peak>
      <Name>Ammaflue</Name>
      <Longitude>9.84742983496</Longitude>
      <Latitude>46.9519434537</Latitude>
      <Altitude>2217</Altitude>
      <Canton>GR</Canton>
    </Peak>
    <Peak>
      <Name>Ammertengrat</Name>
      <Longitude>7.54361273467</Longitude>
      <Latitude>46.4224582577</Latitude>
      <Altitude>2681</Altitude>
      <Canton>BE</Canton>
    </Peak>
    <Peak>
      <Name>Ammertenhorn</Name>
      <Longitude>7.51726356297</Longitude>
      <Latitude>46.4171271712</Latitude>
      <Altitude>2666</Altitude>
      <Canton>BE</Canton>
    </Peak>
    <Peak>
      <Name>Ammertenspitz</Name>
      <Longitude>7.52476832497</Longitude>
      <Latitude>46.4334038098</Latitude>
      <Altitude>2613</Altitude>
      <Canton>BE</Canton>
    </Peak>
    <Peak>
      <Name>Aiguille de l'Amône</Name>
      <Longitude>7.04210133747</Longitude>
      <Latitude>45.9302479822</Latitude>
      <Altitude>3586</Altitude>
      <Canton>VS/F</Canton>
    </Peak>
    <Peak>
      <Name>Ampervreilhorn</Name>
      <Longitude>9.15835753559</Longitude>
      <Latitude>46.5695445034</Latitude>
      <Altitude>2802</Altitude>
      <Canton>GR</Canton>
    </Peak>
    <Peak>
      <Name>Amselegg</Name>
      <Longitude>9.70829820214</Longitude>
      <Latitude>46.7618438252</Latitude>
      <Altitude>2509</Altitude>
      <Canton>GR</Canton>
    </Peak>
    <Peak>
      <Name>Amselflue</Name>
      <Longitude>9.73311326449</Longitude>
      <Latitude>46.7664322689</Latitude>
      <Altitude>2771</Altitude>
      <Canton>GR</Canton>
    </Peak>
    <Peak>
      <Name>Amselspitz</Name>
      <Longitude>8.74278204327</Longitude>
      <Latitude>47.0891314513</Latitude>
      <Altitude>1491</Altitude>
      <Canton>SZ</Canton>
    </Peak>
    <Peak>
      <Name>Pizzas d'Anarosa</Name>
      <Longitude>9.31594188567</Longitude>
      <Latitude>46.598996473</Latitude>
      <Altitude>3002</Altitude>
      <Canton>GR</Canton>
    </Peak>
    <Peak>
      <Name>Pizzo d'Andolla</Name>
      <Longitude>8.0347843985</Longitude>
      <Latitude>46.1008243347</Latitude>
      <Altitude>3654</Altitude>
      <Canton>VS/I</Canton>
    </Peak>
    <Peak>
      <Name>Wild Andrist</Name>
      <Longitude>7.79719045345</Longitude>
      <Latitude>46.5479253163</Latitude>
      <Altitude>2849</Altitude>
      <Canton>BE</Canton>
    </Peak>
    <Peak>
      <Name>Zahm Andrist</Name>
      <Longitude>7.78777261584</Longitude>
      <Latitude>46.5533520194</Latitude>
      <Altitude>2681</Altitude>
      <Canton>BE</Canton>
    </Peak>
    <Peak>
      <Name>Crap digls Anghels</Name>
      <Longitude>9.60378395729</Longitude>
      <Latitude>46.6376641724</Latitude>
      <Altitude>2137</Altitude>
      <Canton>GR</Canton>
    </Peak>
    <Peak>
      <Name>Bots digls Angialets</Name>
      <Longitude>9.84631667542</Longitude>
      <Latitude>46.6795479798</Latitude>
      <Altitude>2744</Altitude>
      <Canton>GR</Canton>
    </Peak>
    <Peak>
      <Name>Angistock</Name>
      <Longitude>8.56260062926</Longitude>
      <Latitude>46.8413036019</Latitude>
      <Altitude>2070</Altitude>
      <Canton>UR</Canton>
    </Peak>
    <Peak>
      <Name>Aiguille des Angroniettes</Name>
      <Longitude>7.09384421941</Longitude>
      <Latitude>45.8713191278</Latitude>
      <Altitude>2883</Altitude>
      <Canton>VS/I</Canton>
    </Peak>
    <Peak>
      <Name>Ankenballen</Name>
      <Longitude>7.78992444023</Longitude>
      <Latitude>47.3673656859</Latitude>
      <Altitude>1023</Altitude>
      <Canton>BL</Canton>
    </Peak>
    <Peak>
      <Name>Ankenbälli</Name>
      <Longitude>8.14536598017</Longitude>
      <Latitude>46.6113807134</Latitude>
      <Altitude>3161</Altitude>
      <Canton>BE</Canton>
    </Peak>
    <Peak>
      <Name>Ankenbälli</Name>
      <Longitude>8.14536598017</Longitude>
      <Latitude>46.6113807134</Latitude>
      <Altitude>3601</Altitude>
      <Canton>BE</Canton>
    </Peak>
    <Peak>
      <Name>Ankestock</Name>
      <Longitude>7.45630391875</Longitude>
      <Latitude>46.5474994685</Latitude>
      <Altitude>2033</Altitude>
      <Canton>BE</Canton>
    </Peak>
    <Peak>
      <Name>Tsa de l'Ano</Name>
      <Longitude>7.57306882128</Longitude>
      <Latitude>46.0780762027</Latitude>
      <Altitude>3368</Altitude>
      <Canton>VS</Canton>
    </Peak>
    <Peak>
      <Name>Piz d'Anschatscha</Name>
      <Longitude>10.1109525344</Longitude>
      <Latitude>46.8172994723</Latitude>
      <Altitude>2983</Altitude>
      <Canton>GR</Canton>
    </Peak>
    <Peak>
      <Name>Chaux d'Antème</Name>
      <Longitude>6.89444429385</Longitude>
      <Latitude>46.1623927312</Latitude>
      <Altitude>2177</Altitude>
      <Canton>VS</Canton>
    </Peak>
    <Peak>
      <Name>Tour d'Antème</Name>
      <Longitude>6.89831854072</Longitude>
      <Latitude>46.1568339684</Latitude>
      <Altitude>2617</Altitude>
      <Canton>VS</Canton>
    </Peak>
    <Peak>
      <Name>Piz da l'Antgierna da Salteras</Name>
      <Longitude>9.71709845251</Longitude>
      <Latitude>46.5766874305</Latitude>
      <Altitude>2982</Altitude>
      <Canton>GR</Canton>
    </Peak>
    <Peak>
      <Name>Pizzo di Antigine</Name>
      <Longitude>8.00108912565</Longitude>
      <Latitude>46.0121650883</Latitude>
      <Altitude>3189</Altitude>
      <Canton>VS/I</Canton>
    </Peak>
    <Peak>
      <Name>Anuchnubel</Name>
      <Longitude>7.9493571323</Longitude>
      <Latitude>46.479650569</Latitude>
      <Altitude>3591</Altitude>
      <Canton>VS</Canton>
    </Peak>
    <Peak>
      <Name>Anungrat</Name>
      <Longitude>7.94066392227</Longitude>
      <Latitude>46.4830627381</Latitude>
      <Altitude>3691</Altitude>
      <Canton>VS</Canton>
    </Peak>
    <Peak>
      <Name>Tour d'Anzeinde</Name>
      <Longitude>7.15390142436</Longitude>
      <Latitude>46.2837062145</Latitude>
      <Altitude>2169</Altitude>
      <Canton>VD</Canton>
    </Peak>
    <Peak>
      <Name>Petite Aouille</Name>
      <Longitude>7.43431857192</Longitude>
      <Latitude>45.9313515679</Latitude>
      <Altitude>3343</Altitude>
      <Canton>VS</Canton>
    </Peak>
    <Peak>
      <Name>Aprigenstock</Name>
      <Longitude>8.57234671572</Longitude>
      <Latitude>46.7406731611</Latitude>
      <Altitude>2592</Altitude>
      <Canton>UR</Canton>
    </Peak>
    <Peak>
      <Name>Apöstel</Name>
      <Longitude>9.29875706235</Longitude>
      <Latitude>47.025239418</Latitude>
      <Altitude>2346</Altitude>
      <Canton>SG</Canton>
    </Peak>
    <Peak>
      <Name>Point d'Ar Pitetta</Name>
      <Longitude>7.66646741416</Longitude>
      <Latitude>46.1108048294</Latitude>
      <Altitude>3133</Altitude>
      <Canton>VS</Canton>
    </Peak>
    <Peak>
      <Name>Arbenhorn</Name>
      <Longitude>7.6505827765</Longitude>
      <Latitude>46.0336994494</Latitude>
      <Altitude>3713</Altitude>
      <Canton>VS</Canton>
    </Peak>
    <Peak>
      <Name>Fil d'Arbeola</Name>
      <Longitude>9.15354303047</Longitude>
      <Latitude>46.4320865518</Latitude>
      <Altitude>2363</Altitude>
      <Canton>GR</Canton>
    </Peak>
    <Peak>
      <Name>Piz d'Arbeola</Name>
      <Longitude>9.16478976806</Longitude>
      <Latitude>46.4276870632</Latitude>
      <Altitude>2600</Altitude>
      <Canton>GR</Canton>
    </Peak>
    <Peak>
      <Name>Râz d'Arbey</Name>
      <Longitude>7.46236985461</Longitude>
      <Latitude>46.1085135572</Latitude>
      <Altitude>2347</Altitude>
      <Canton>VS</Canton>
    </Peak>
    <Peak>
      <Name>Motto d'Arbino</Name>
      <Longitude>9.07216413333</Longitude>
      <Latitude>46.1885991545</Latitude>
      <Altitude>1695</Altitude>
      <Canton>TI</Canton>
    </Peak>
    <Peak>
      <Name>Poncione d'Arbione</Name>
      <Longitude>8.71795348324</Longitude>
      <Latitude>46.5318942363</Latitude>
      <Altitude>2409</Altitude>
      <Canton>TI</Canton>
    </Peak>
    <Peak>
      <Name>Uomo d'Arbione</Name>
      <Longitude>8.72183982053</Longitude>
      <Latitude>46.5308607953</Latitude>
      <Altitude>2414</Altitude>
      <Canton>TI</Canton>
    </Peak>
    <Peak>
      <Name>Piz Arblatsch</Name>
      <Longitude>9.57694217651</Longitude>
      <Latitude>46.5355386909</Latitude>
      <Altitude>3204</Altitude>
      <Canton>GR</Canton>
    </Peak>
    <Peak>
      <Name>Arblihore</Name>
      <Longitude>7.48850334446</Longitude>
      <Latitude>46.5422724642</Latitude>
      <Altitude>2099</Altitude>
      <Canton>BE</Canton>
    </Peak>
    <Peak>
      <Name>Punta d'Arbola</Name>
      <Longitude>8.31858955268</Longitude>
      <Latitude>46.3863943136</Latitude>
      <Altitude>3235</Altitude>
      <Canton>VS/I</Canton>
    </Peak>
    <Peak>
      <Name>Arbtschugge</Name>
      <Longitude>7.77348683344</Longitude>
      <Latitude>46.3413214119</Latitude>
      <Altitude>2401</Altitude>
      <Canton>VS</Canton>
    </Peak>
    <Peak>
      <Name>Arbächnubel</Name>
      <Longitude>7.77148472448</Longitude>
      <Latitude>46.4173859621</Latitude>
      <Altitude>2239</Altitude>
      <Canton>VS</Canton>
    </Peak>
    <Peak>
      <Name>Ardetzenberg</Name>
      <Longitude>9.60249492734</Longitude>
      <Latitude>47.2511238467</Latitude>
      <Altitude>631</Altitude>
      <Canton>A</Canton>
    </Peak>
    <Peak>
      <Name>Piz del'Ardion</Name>
      <Longitude>9.17094779657</Longitude>
      <Latitude>46.3597497731</Latitude>
      <Altitude>2507</Altitude>
      <Canton>GR</Canton>
    </Peak>
    <Peak>
      <Name>Muot Arduond</Name>
      <Longitude>10.0296114086</Longitude>
      <Latitude>46.4582104883</Latitude>
      <Altitude>2878</Altitude>
      <Canton>GR</Canton>
    </Peak>
    <Peak>
      <Name>Sass d'Argent</Name>
      <Longitude>8.68979576696</Longitude>
      <Latitude>46.3203339818</Latitude>
      <Altitude>2317</Altitude>
      <Canton>TI</Canton>
    </Peak>
    <Peak>
      <Name>Aiguille d'Argentière</Name>
      <Longitude>7.02021806105</Longitude>
      <Latitude>45.9598086804</Latitude>
      <Altitude>3900</Altitude>
      <Canton>VS/F</Canton>
    </Peak>
    <Peak>
      <Name>L'Argentine</Name>
      <Longitude>7.1327444394</Longitude>
      <Latitude>46.2735309024</Latitude>
      <Altitude>2422</Altitude>
      <Canton>VD</Canton>
    </Peak>
    <Peak>
      <Name>Lion d'Argentine</Name>
      <Longitude>7.12298313455</Longitude>
      <Latitude>46.2678368318</Latitude>
      <Altitude>2273</Altitude>
      <Canton>VD</Canton>
    </Peak>
    <Peak>
      <Name>Piz Argient</Name>
      <Longitude>9.92503405341</Longitude>
      <Latitude>46.3660037647</Latitude>
      <Altitude>3945</Altitude>
      <Canton>GR/I</Canton>
    </Peak>
    <Peak>
      <Name>Piz Arina</Name>
      <Longitude>10.3755673254</Longitude>
      <Latitude>46.8680070622</Latitude>
      <Altitude>2828</Altitude>
      <Canton>GR</Canton>
    </Peak>
    <Peak>
      <Name>Munt Arlas</Name>
      <Longitude>9.84265156836</Longitude>
      <Latitude>46.443245461</Latitude>
      <Altitude>3127</Altitude>
      <Canton>GR</Canton>
    </Peak>
    <Peak>
      <Name>Piz d'Arlas</Name>
      <Longitude>9.98357374216</Longitude>
      <Latitude>46.3972399849</Latitude>
      <Altitude>3375</Altitude>
      <Canton>GR</Canton>
    </Peak>
    <Peak>
      <Name>Piz Arlos</Name>
      <Longitude>9.58373451974</Longitude>
      <Latitude>46.5588529847</Latitude>
      <Altitude>2697</Altitude>
      <Canton>GR</Canton>
    </Peak>
    <Peak>
      <Name>Six Armaille</Name>
      <Longitude>7.12821558407</Longitude>
      <Latitude>46.2032625501</Latitude>
      <Altitude>2427</Altitude>
      <Canton>VS</Canton>
    </Peak>
    <Peak>
      <Name>Arnenhorn</Name>
      <Longitude>7.19407476675</Longitude>
      <Latitude>46.3812680613</Latitude>
      <Altitude>2211</Altitude>
      <Canton>BE/VD</Canton>
    </Peak>
    <Peak>
      <Name>Arnergale</Name>
      <Longitude>8.21473175802</Longitude>
      <Latitude>46.4146355217</Latitude>
      <Altitude>2496</Altitude>
      <Canton>VS</Canton>
    </Peak>
    <Peak>
      <Name>Arnifirst</Name>
      <Longitude>8.09145787885</Longitude>
      <Latitude>46.7902242821</Latitude>
      <Altitude>2155</Altitude>
      <Canton>OW</Canton>
    </Peak>
    <Peak>
      <Name>Arnihaaggen</Name>
      <Longitude>8.06897644024</Longitude>
      <Latitude>46.7885513651</Latitude>
      <Altitude>2207</Altitude>
      <Canton>BE/OW</Canton>
    </Peak>
    <Peak>
      <Name>Arnitriste</Name>
      <Longitude>8.07805712607</Longitude>
      <Latitude>46.7977664927</Latitude>
      <Altitude>2005</Altitude>
      <Canton>OW</Canton>
    </Peak>
    <Peak>
      <Name>Arnätschistand</Name>
      <Longitude>7.20711340995</Longitude>
      <Latitude>46.4023002965</Latitude>
      <Altitude>2097</Altitude>
      <Canton>BE/VD</Canton>
    </Peak>
    <Peak>
      <Name>L'Arolette</Name>
      <Longitude>6.96979660402</Longitude>
      <Latitude>46.0338230982</Latitude>
      <Altitude>2330</Altitude>
      <Canton>VS</Canton>
    </Peak>
    <Peak>
      <Name>Aiguilles Rouges d'Arolla</Name>
      <Longitude>7.43372734665</Longitude>
      <Latitude>46.0553077556</Latitude>
      <Altitude>3646</Altitude>
      <Canton>VS</Canton>
    </Peak>
    <Peak>
      <Name>Pigne d'Arolla</Name>
      <Longitude>7.45509189441</Longitude>
      <Latitude>45.9913493165</Latitude>
      <Altitude>3796</Altitude>
      <Canton>VS</Canton>
    </Peak>
    <Peak>
      <Name>Clocher de l'Arpalle</Name>
      <Longitude>7.13512890015</Longitude>
      <Latitude>45.9040011855</Latitude>
      <Altitude>2617</Altitude>
      <Canton>VS</Canton>
    </Peak>
    <Peak>
      <Name>Arpelihorn</Name>
      <Longitude>7.30807586618</Longitude>
      <Latitude>46.3516810506</Latitude>
      <Altitude>2921</Altitude>
      <Canton>BE/VS</Canton>
    </Peak>
    <Peak>
      <Name>Arpelistock</Name>
      <Longitude>7.31523877166</Longitude>
      <Latitude>46.343862878</Latitude>
      <Altitude>3035</Altitude>
      <Canton>BE/VS</Canton>
    </Peak>
    <Peak>
      <Name>Clochers d'Arpette</Name>
      <Longitude>7.06184425026</Longitude>
      <Latitude>46.0305702224</Latitude>
      <Altitude>2814</Altitude>
      <Canton>VS</Canton>
    </Peak>
    <Peak>
      <Name>L'Arpette</Name>
      <Longitude>7.3126597893</Longitude>
      <Latitude>46.1115042112</Latitude>
      <Altitude>2396</Altitude>
      <Canton>VS</Canton>
    </Peak>
    <Peak>
      <Name>Tête d'Arpette</Name>
      <Longitude>7.06903459062</Longitude>
      <Latitude>46.0176854816</Latitude>
      <Altitude>2295</Altitude>
      <Canton>VS</Canton>
    </Peak>
    <Peak>
      <Name>Piz Arpiglia</Name>
      <Longitude>10.0054674356</Longitude>
      <Latitude>46.5808048614</Latitude>
      <Altitude>2765</Altitude>
      <Canton>GR</Canton>
    </Peak>
    <Peak>
      <Name>Piz d'Arpiglias</Name>
      <Longitude>10.1175068072</Longitude>
      <Latitude>46.7343395213</Latitude>
      <Altitude>3027</Altitude>
      <Canton>GR</Canton>
    </Peak>
    <Peak>
      <Name>Mont de l'Arpille</Name>
      <Longitude>7.00645771347</Longitude>
      <Latitude>46.0771933917</Latitude>
      <Altitude>2085</Altitude>
      <Canton>VS</Canton>
    </Peak>
    <Peak>
      <Name>Vanil d'Arpille</Name>
      <Longitude>7.2408530095</Longitude>
      <Latitude>46.6175846023</Latitude>
      <Altitude>2085</Altitude>
      <Canton>FR</Canton>
    </Peak>
    <Peak>
      <Name>Les Arpilles</Name>
      <Longitude>7.1691319916</Longitude>
      <Latitude>46.4046452658</Latitude>
      <Altitude>2133</Altitude>
      <Canton>VD</Canton>
    </Peak>
    <Peak>
      <Name>Piz Arpschella</Name>
      <Longitude>10.0104582832</Longitude>
      <Latitude>46.7185779505</Latitude>
      <Altitude>3032</Altitude>
      <Canton>GR</Canton>
    </Peak>
    <Peak>
      <Name>Spi d'Arpschella</Name>
      <Longitude>10.0337582474</Longitude>
      <Latitude>46.7295705576</Latitude>
      <Altitude>2953</Altitude>
      <Canton>GR</Canton>
    </Peak>
    <Peak>
      <Name>Piz d'Artgas</Name>
      <Longitude>9.04080347525</Longitude>
      <Latitude>46.8226023632</Latitude>
      <Altitude>2786</Altitude>
      <Canton>GR</Canton>
    </Peak>
    <Peak>
      <Name>Vanil des Artses</Name>
      <Longitude>6.98727603121</Longitude>
      <Latitude>46.4822857653</Latitude>
      <Altitude>1993</Altitude>
      <Canton>FR</Canton>
    </Peak>
    <Peak>
      <Name>Pic d'Artsinol</Name>
      <Longitude>7.42706047498</Longitude>
      <Latitude>46.11526208</Latitude>
      <Altitude>2998</Altitude>
      <Canton>VS</Canton>
    </Peak>
    <Peak>
      <Name>Arvigrat</Name>
      <Longitude>8.33425885388</Longitude>
      <Latitude>46.8871297208</Latitude>
      <Altitude>2014</Altitude>
      <Canton>NW/OW</Canton>
    </Peak>
    <Peak>
      <Name>Pizzo dell'Arzo</Name>
      <Longitude>8.49304518334</Longitude>
      <Latitude>46.4461272193</Latitude>
      <Altitude>2755</Altitude>
      <Canton>TI</Canton>
    </Peak>
    <Peak>
      <Name>Piz As-cha</Name>
      <Longitude>9.8507107437</Longitude>
      <Latitude>46.6155114777</Latitude>
      <Altitude>2731</Altitude>
      <Canton>GR</Canton>
    </Peak>
    <Peak>
      <Name>Plan da l'Asen</Name>
      <Longitude>10.2124622999</Longitude>
      <Latitude>46.6245956054</Latitude>
      <Altitude>2170</Altitude>
      <Canton>GR</Canton>
    </Peak>
    <Peak>
      <Name>Astelhorn</Name>
      <Longitude>8.25322572396</Longitude>
      <Latitude>46.8258437857</Latitude>
      <Altitude>2086</Altitude>
      <Canton>OW</Canton>
    </Peak>
    <Peak>
      <Name>Piz d'Astras</Name>
      <Longitude>10.3273502514</Longitude>
      <Latitude>46.6754770846</Latitude>
      <Altitude>2980</Altitude>
      <Canton>GR</Canton>
    </Peak>
    <Peak>
      <Name>Atlas</Name>
      <Longitude>9.23923630052</Longitude>
      <Latitude>46.898423547</Latitude>
      <Altitude>2927</Altitude>
      <Canton>GR</Canton>
    </Peak>
    <Peak>
      <Name>Les Attelas</Name>
      <Longitude>7.2684635265</Longitude>
      <Latitude>46.0992573086</Latitude>
      <Altitude>2733</Altitude>
      <Canton>VS</Canton>
    </Peak>
    <Peak>
      <Name>Pointe de l'Au</Name>
      <Longitude>6.8411467779</Longitude>
      <Latitude>46.1999507514</Latitude>
      <Altitude>2152</Altitude>
      <Canton>VS</Canton>
    </Peak>
    <Peak>
      <Name>Piz da l'Aua</Name>
      <Longitude>10.3560681818</Longitude>
      <Latitude>46.7494145442</Latitude>
      <Altitude>3002</Altitude>
      <Canton>GR</Canton>
    </Peak>
    <Peak>
      <Name>Corne Aubert</Name>
      <Longitude>7.21396521878</Longitude>
      <Latitude>46.5376536547</Latitude>
      <Altitude>2036</Altitude>
      <Canton>FR/VD</Canton>
    </Peak>
    <Peak>
      <Name>Mont Aubert</Name>
      <Longitude>6.67753331767</Longitude>
      <Latitude>46.8714160419</Latitude>
      <Altitude>1339</Altitude>
      <Canton>VD</Canton>
    </Peak>
    <Peak>
      <Name>Chli Aubrig</Name>
      <Longitude>8.86234468684</Longitude>
      <Latitude>47.1075042447</Latitude>
      <Altitude>1642</Altitude>
      <Canton>SZ</Canton>
    </Peak>
    <Peak>
      <Name>Gross Aubrig</Name>
      <Longitude>8.88201697515</Longitude>
      <Latitude>47.1113972401</Latitude>
      <Altitude>1695</Altitude>
      <Canton>SZ</Canton>
    </Peak>
    <Peak>
      <Name>Becca d'Audon</Name>
      <Longitude>7.22151400264</Longitude>
      <Latitude>46.3292840626</Latitude>
      <Altitude>3123</Altitude>
      <Canton>BE/VD/VS</Canton>
    </Peak>
    <Peak>
      <Name>Auenberg</Name>
      <Longitude>8.88933787637</Longitude>
      <Latitude>47.3014409413</Latitude>
      <Altitude>1051</Altitude>
      <Canton>ZH</Canton>
    </Peak>
    <Peak>
      <Name>Auf den Stöcken</Name>
      <Longitude>8.4692713076</Longitude>
      <Latitude>46.6059411921</Latitude>
      <Altitude>2591</Altitude>
      <Canton>UR</Canton>
    </Peak>
    <Peak>
      <Name>Pointe d'Aufalle</Name>
      <Longitude>7.11485398345</Longitude>
      <Latitude>46.217033379</Latitude>
      <Altitude>2727</Altitude>
      <Canton>VD/VS</Canton>
    </Peak>
    <Peak>
      <Name>Augstberg</Name>
      <Longitude>9.74281603427</Longitude>
      <Latitude>46.7559775704</Latitude>
      <Altitude>2348</Altitude>
      <Canton>SG</Canton>
    </Peak>
    <Peak>
      <Name>Augstberg</Name>
      <Longitude>9.74281603427</Longitude>
      <Latitude>46.7559775704</Latitude>
      <Altitude>2449</Altitude>
      <Canton>GR</Canton>
    </Peak>
    <Peak>
      <Name>Augstbordgrat</Name>
      <Longitude>7.78136512636</Longitude>
      <Latitude>46.2208906549</Latitude>
      <Altitude>2961</Altitude>
      <Canton>VS</Canton>
    </Peak>
    <Peak>
      <Name>Augstbordhorn</Name>
      <Longitude>7.794225684</Longitude>
      <Latitude>46.2354239259</Latitude>
      <Altitude>2971</Altitude>
      <Canton>VS</Canton>
    </Peak>
    <Peak>
      <Name>Augstenberg</Name>
      <Longitude>9.6099706994</Longitude>
      <Latitude>47.0823555371</Latitude>
      <Altitude>3230</Altitude>
      <Canton>GR</Canton>
    </Peak>
    <Peak>
      <Name>Augstenberg</Name>
      <Longitude>9.6099706994</Longitude>
      <Latitude>47.0823555371</Latitude>
      <Altitude>2238</Altitude>
      <Canton>GR</Canton>
    </Peak>
    <Peak>
      <Name>Augstenberg</Name>
      <Longitude>9.6099706994</Longitude>
      <Latitude>47.0823555371</Latitude>
      <Altitude>2359</Altitude>
      <Canton>FL</Canton>
    </Peak>
    <Peak>
      <Name>Augstenhüreli</Name>
      <Longitude>9.9032285856</Longitude>
      <Latitude>46.6916511824</Latitude>
      <Altitude>3027</Altitude>
      <Canton>GR</Canton>
    </Peak>
    <Peak>
      <Name>Augstkummenhorn</Name>
      <Longitude>8.02171302438</Longitude>
      <Latitude>46.0695875474</Latitude>
      <Altitude>3419</Altitude>
      <Canton>VS/I</Canton>
    </Peak>
    <Peak>
      <Name>Augstmatthorn</Name>
      <Longitude>7.92861620545</Longitude>
      <Latitude>46.7422373399</Latitude>
      <Altitude>2137</Altitude>
      <Canton>BE</Canton>
    </Peak>
    <Peak>
      <Name>Piz Aul</Name>
      <Longitude>9.12505233616</Longitude>
      <Latitude>46.6227693093</Latitude>
      <Altitude>3121</Altitude>
      <Canton>GR</Canton>
    </Peak>
    <Peak>
      <Name>Piz Ault</Name>
      <Longitude>8.78194498572</Longitude>
      <Latitude>46.7282775511</Latitude>
      <Altitude>2455</Altitude>
      <Canton>GR</Canton>
    </Peak>
    <Peak>
      <Name>Piz Ault</Name>
      <Longitude>8.78194498572</Longitude>
      <Latitude>46.7282775511</Latitude>
      <Altitude>2471</Altitude>
      <Canton>GR</Canton>
    </Peak>
    <Peak>
      <Name>Piz Ault</Name>
      <Longitude>8.78194498572</Longitude>
      <Latitude>46.7282775511</Latitude>
      <Altitude>3027</Altitude>
      <Canton>GR/UR</Canton>
    </Peak>
    <Peak>
      <Name>Tgom'Aulta</Name>
      <Longitude>9.474676329</Longitude>
      <Latitude>46.7980144973</Latitude>
      <Altitude>2085</Altitude>
      <Canton>GR</Canton>
    </Peak>
    <Peak>
      <Name>Aults</Name>
      <Longitude>8.94325885429</Longitude>
      <Latitude>46.6504634308</Latitude>
      <Altitude>2349</Altitude>
      <Canton>GR</Canton>
    </Peak>
    <Peak>
      <Name>Punta d'Aurona</Name>
      <Longitude>8.10544223957</Longitude>
      <Latitude>46.2796266357</Latitude>
      <Altitude>2985</Altitude>
      <Canton>VS/I</Canton>
    </Peak>
    <Peak>
      <Name>Pointe d'Aussel</Name>
      <Longitude>7.13578078173</Longitude>
      <Latitude>46.2990417834</Latitude>
      <Altitude>2159</Altitude>
      <Canton>VD</Canton>
    </Peak>
    <Peak>
      <Name>Muot Aut</Name>
      <Longitude>10.1976489496</Longitude>
      <Latitude>46.7961560965</Latitude>
      <Altitude>2399</Altitude>
      <Canton>GR</Canton>
    </Peak>
    <Peak>
      <Name>Mott'Auta</Name>
      <Longitude>10.1198695159</Longitude>
      <Latitude>46.8041745435</Latitude>
      <Altitude>2737</Altitude>
      <Canton>GR</Canton>
    </Peak>
    <Peak>
      <Name>Muott'Auta</Name>
      <Longitude>10.2228355139</Longitude>
      <Latitude>46.7965797973</Latitude>
      <Altitude>2094</Altitude>
      <Canton>GR</Canton>
    </Peak>
    <Peak>
      <Name>Pointes des Autans</Name>
      <Longitude>7.36495066977</Longitude>
      <Latitude>46.0837993906</Latitude>
      <Altitude>3066</Altitude>
      <Canton>VS</Canton>
    </Peak>
    <Peak>
      <Name>Piz Avat</Name>
      <Longitude>8.90625795656</Longitude>
      <Latitude>46.7673230737</Latitude>
      <Altitude>2910</Altitude>
      <Canton>GR</Canton>
    </Peak>
    <Peak>
      <Name>Pointe d'Aveneyre</Name>
      <Longitude>7.00466012453</Longitude>
      <Latitude>46.4173591511</Latitude>
      <Altitude>2026</Altitude>
      <Canton>VD</Canton>
    </Peak>
    <Peak>
      <Name>Pizzo d'Avino</Name>
      <Longitude>8.12007715131</Longitude>
      <Latitude>46.2360891613</Latitude>
      <Altitude>2880</Altitude>
      <Canton>VS/I</Canton>
    </Peak>
    <Peak>
      <Name>Pierre Avoi</Name>
      <Longitude>7.19997526781</Longitude>
      <Latitude>46.1181138069</Latitude>
      <Altitude>2473</Altitude>
      <Canton>VS</Canton>
    </Peak>
    <Peak>
      <Name>Les Avouillons</Name>
      <Longitude>7.27858257478</Longitude>
      <Latitude>45.9998273832</Latitude>
      <Altitude>2950</Altitude>
      <Canton>VS</Canton>
    </Peak>
    <Peak>
      <Name>Mont Avril</Name>
      <Longitude>7.344106021</Longitude>
      <Latitude>45.9151653918</Latitude>
      <Altitude>3347</Altitude>
      <Canton>VS/I</Canton>
    </Peak>
    <Peak>
      <Name>Axalphorn</Name>
      <Longitude>8.06080481704</Longitude>
      <Latitude>46.7103332259</Latitude>
      <Altitude>2321</Altitude>
      <Canton>BE</Canton>
    </Peak>
    <Peak>
      <Name>Axen</Name>
      <Longitude>8.79255920502</Longitude>
      <Latitude>46.880107024</Latitude>
      <Altitude>2096</Altitude>
      <Canton>UR</Canton>
    </Peak>
    <Peak>
      <Name>Pointe d'Ayace</Name>
      <Longitude>7.37786935556</Longitude>
      <Latitude>45.9173475689</Latitude>
      <Altitude>3019</Altitude>
      <Canton>VS</Canton>
    </Peak>
    <Peak>
      <Name>Cima d'Azoglio</Name>
      <Longitude>8.13817110367</Longitude>
      <Latitude>46.1358543032</Latitude>
      <Altitude>2611</Altitude>
      <Canton>VS/I</Canton>
    </Peak>
    <Peak>
      <Name>Baarburg</Name>
      <Longitude>8.55584229464</Longitude>
      <Latitude>47.2043127286</Latitude>
      <Altitude>683</Altitude>
      <Canton>ZG</Canton>
    </Peak>
    <Peak>
      <Name>Babylone</Name>
      <Longitude>7.19770533603</Longitude>
      <Latitude>45.8703304645</Latitude>
      <Altitude>2857</Altitude>
      <Canton>VS/I</Canton>
    </Peak>
    <Peak>
      <Name>Bachberggrat</Name>
      <Longitude>7.34739200255</Longitude>
      <Latitude>46.4571482693</Latitude>
      <Altitude>2218</Altitude>
      <Canton>BE</Canton>
    </Peak>
    <Peak>
      <Name>Bachflue</Name>
      <Longitude>7.70847846085</Longitude>
      <Latitude>46.5638227515</Latitude>
      <Altitude>2180</Altitude>
      <Canton>BE</Canton>
    </Peak>
    <Peak>
      <Name>Bachtel</Name>
      <Longitude>8.88637751107</Longitude>
      <Latitude>47.2946861262</Latitude>
      <Altitude>1110</Altitude>
      <Canton>ZH</Canton>
    </Peak>
    <Peak>
      <Name>Piz Bacun</Name>
      <Longitude>9.68237935058</Longitude>
      <Latitude>46.3423163571</Latitude>
      <Altitude>3244</Altitude>
      <Canton>GR</Canton>
    </Peak>
    <Peak>
      <Name>Pizzo Badile</Name>
      <Longitude>9.58625039576</Longitude>
      <Latitude>46.2953155749</Latitude>
      <Altitude>3305</Altitude>
      <Canton>GR/I</Canton>
    </Peak>
    <Peak>
      <Name>Piz Badilet</Name>
      <Longitude>9.5830997093</Longitude>
      <Latitude>46.2944304355</Latitude>
      <Altitude>3171</Altitude>
      <Canton>GR/I</Canton>
    </Peak>
    <Peak>
      <Name>Badus</Name>
      <Longitude>8.66375319762</Longitude>
      <Latitude>46.6225028739</Latitude>
      <Altitude>2928</Altitude>
      <Canton>GR/UR</Canton>
    </Peak>
    <Peak>
      <Name>Pointe de Balavaux</Name>
      <Longitude>7.29399536256</Longitude>
      <Latitude>46.1507922818</Latitude>
      <Altitude>2456</Altitude>
      <Canton>VS</Canton>
    </Peak>
    <Peak>
      <Name>Baldachopf</Name>
      <Longitude>9.380106215</Longitude>
      <Latitude>46.8680016943</Latitude>
      <Altitude>2106</Altitude>
      <Canton>GR</Canton>
    </Peak>
    <Peak>
      <Name>Balfrin</Name>
      <Longitude>7.88026871825</Longitude>
      <Latitude>46.1351336141</Latitude>
      <Altitude>3796</Altitude>
      <Canton>VS</Canton>
    </Peak>
    <Peak>
      <Name>Bas de Ballavaux</Name>
      <Longitude>6.89021664685</Longitude>
      <Latitude>46.0806911545</Latitude>
      <Altitude>2510</Altitude>
      <Canton>VS/F</Canton>
    </Peak>
    <Peak>
      <Name>Balmahorn</Name>
      <Longitude>8.07588710222</Longitude>
      <Latitude>46.1378422711</Latitude>
      <Altitude>2870</Altitude>
      <Canton>VS</Canton>
    </Peak>
    <Peak>
      <Name>Mont de la Balme</Name>
      <Longitude>7.374087466</Longitude>
      <Latitude>45.9002544604</Latitude>
      <Altitude>3347</Altitude>
      <Canton>VS/I</Canton>
    </Peak>
    <Peak>
      <Name>Tête de Balme</Name>
      <Longitude>7.33077639509</Longitude>
      <Latitude>45.9105208311</Latitude>
      <Altitude>2321</Altitude>
      <Canton>VS/F</Canton>
    </Peak>
    <Peak>
      <Name>Tête de Balme</Name>
      <Longitude>7.33077639509</Longitude>
      <Latitude>45.9105208311</Latitude>
      <Altitude>3313</Altitude>
      <Canton>VS/I</Canton>
    </Peak>
    <Peak>
      <Name>Balmenritz</Name>
      <Longitude>8.38865557142</Longitude>
      <Latitude>46.5086731681</Latitude>
      <Altitude>2433</Altitude>
      <Canton>VS</Canton>
    </Peak>
    <Peak>
      <Name>Balmenstock</Name>
      <Longitude>8.57193378706</Longitude>
      <Latitude>46.7615039139</Latitude>
      <Altitude>2454</Altitude>
      <Canton>UR</Canton>
    </Peak>
    <Peak>
      <Name>Balmeregghorn</Name>
      <Longitude>8.28008864054</Longitude>
      <Latitude>46.7542215565</Latitude>
      <Altitude>2255</Altitude>
      <Canton>BE/OW</Canton>
    </Peak>
    <Peak>
      <Name>Balmhorn</Name>
      <Longitude>7.69354384626</Longitude>
      <Latitude>46.4250541944</Latitude>
      <Altitude>3699</Altitude>
      <Canton>BE/VS</Canton>
    </Peak>
    <Peak>
      <Name>Balmi</Name>
      <Longitude>7.99442476161</Longitude>
      <Latitude>46.7792229993</Latitude>
      <Altitude>2141</Altitude>
      <Canton>BE/LU</Canton>
    </Peak>
    <Peak>
      <Name>Cima di Balniscio</Name>
      <Longitude>9.25822563967</Longitude>
      <Latitude>46.4259121509</Latitude>
      <Altitude>2851</Altitude>
      <Canton>GR/I</Canton>
    </Peak>
    <Peak>
      <Name>Piz Balzet</Name>
      <Longitude>9.6643616037</Longitude>
      <Latitude>46.3370473697</Latitude>
      <Altitude>2869</Altitude>
      <Canton>GR</Canton>
    </Peak>
    <Peak>
      <Name>Banderola</Name>
      <Longitude>10.1632397866</Longitude>
      <Latitude>46.2718734425</Latitude>
      <Altitude>2795</Altitude>
      <Canton>GR/I</Canton>
    </Peak>
    <Peak>
      <Name>Bandflue</Name>
      <Longitude>9.54755201369</Longitude>
      <Latitude>46.4673365395</Latitude>
      <Altitude>2603</Altitude>
      <Canton>GR</Canton>
    </Peak>
    <Peak>
      <Name>Pointe du Bandon</Name>
      <Longitude>7.55787296193</Longitude>
      <Latitude>46.1041802012</Latitude>
      <Altitude>3074</Altitude>
      <Canton>VS</Canton>
    </Peak>
    <Peak>
      <Name>Punta Banella</Name>
      <Longitude>8.0248672315</Longitude>
      <Latitude>46.062419613</Latitude>
      <Altitude>3330</Altitude>
      <Canton>VS/I</Canton>
    </Peak>
    <Peak>
      <Name>Bantiger</Name>
      <Longitude>7.52761276987</Longitude>
      <Latitude>46.9778972033</Latitude>
      <Altitude>947</Altitude>
      <Canton>BE</Canton>
    </Peak>
    <Peak>
      <Name>Monte Bar</Name>
      <Longitude>9.01147063294</Longitude>
      <Latitude>46.1078098026</Latitude>
      <Altitude>1816</Altitude>
      <Canton>TI</Canton>
    </Peak>
    <Peak>
      <Name>Pointe de Barasson</Name>
      <Longitude>7.20089160322</Longitude>
      <Latitude>45.8630960839</Latitude>
      <Altitude>2963</Altitude>
      <Canton>VS/I</Canton>
    </Peak>
    <Peak>
      <Name>Tête de Barasson</Name>
      <Longitude>7.19061121908</Longitude>
      <Latitude>45.8586661971</Latitude>
      <Altitude>2730</Altitude>
      <Canton>VS/I</Canton>
    </Peak>
    <Peak>
      <Name>Pizzo Baratin</Name>
      <Longitude>9.05357252491</Longitude>
      <Latitude>46.4770113013</Latitude>
      <Altitude>3037</Altitude>
      <Canton>GR/TI</Canton>
    </Peak>
    <Peak>
      <Name>Piz digl Barba Peder</Name>
      <Longitude>9.71853531071</Longitude>
      <Latitude>46.6076614817</Latitude>
      <Altitude>2746</Altitude>
      <Canton>GR</Canton>
    </Peak>
    <Peak>
      <Name>Muot da Barba Peider</Name>
      <Longitude>9.93146175754</Longitude>
      <Latitude>46.4960046752</Latitude>
      <Altitude>2979</Altitude>
      <Canton>GR</Canton>
    </Peak>
    <Peak>
      <Name>Pizzo Barbarera</Name>
      <Longitude>8.65853503368</Longitude>
      <Latitude>46.570648169</Latitude>
      <Altitude>2804</Altitude>
      <Canton>TI/UR</Canton>
    </Peak>
    <Peak>
      <Name>Monte Bardan</Name>
      <Longitude>9.27598352163</Longitude>
      <Latitude>46.4181125636</Latitude>
      <Altitude>2812</Altitude>
      <Canton>GR/I</Canton>
    </Peak>
    <Peak>
      <Name>Piz Bardella</Name>
      <Longitude>9.70295777125</Longitude>
      <Latitude>46.4821167299</Latitude>
      <Altitude>2839</Altitude>
      <Canton>GR</Canton>
    </Peak>
    <Peak>
      <Name>Bareta</Name>
      <Longitude>8.88351373255</Longitude>
      <Latitude>46.5049887893</Latitude>
      <Altitude>2276</Altitude>
      <Canton>TI</Canton>
    </Peak>
    <Peak>
      <Name>Pizzo Baretino</Name>
      <Longitude>9.05357252491</Longitude>
      <Latitude>46.4770113013</Latitude>
      <Altitude>3037</Altitude>
      <Canton>GR/TI</Canton>
    </Peak>
    <Peak>
      <Name>Piz Barghis</Name>
      <Longitude>9.34319624313</Longitude>
      <Latitude>46.8982704888</Latitude>
      <Altitude>3247</Altitude>
      <Canton>GR/SG</Canton>
    </Peak>
    <Peak>
      <Name>Barglen</Name>
      <Longitude>8.33209859178</Longitude>
      <Latitude>46.7965575145</Latitude>
      <Altitude>2670</Altitude>
      <Canton>OW</Canton>
    </Peak>
    <Peak>
      <Name>Dent de Barme</Name>
      <Longitude>6.84202118674</Longitude>
      <Latitude>46.1319021914</Latitude>
      <Altitude>2759</Altitude>
      <Canton>VS/F</Canton>
    </Peak>
    <Peak>
      <Name>Mont de la Barme</Name>
      <Longitude>6.97361332063</Longitude>
      <Latitude>46.1013959374</Latitude>
      <Altitude>2307</Altitude>
      <Canton>VS</Canton>
    </Peak>
    <Peak>
      <Name>Tête de Barme</Name>
      <Longitude>7.19501451883</Longitude>
      <Latitude>46.3021532691</Latitude>
      <Altitude>3185</Altitude>
      <Canton>VS</Canton>
    </Peak>
    <Peak>
      <Name>Cima de Barna</Name>
      <Longitude>9.26363634575</Longitude>
      <Latitude>46.4204264176</Latitude>
      <Altitude>2862</Altitude>
      <Canton>GR/I</Canton>
    </Peak>
    <Peak>
      <Name>Pointe Barnes</Name>
      <Longitude>7.54153119715</Longitude>
      <Latitude>45.976236271</Latitude>
      <Altitude>3612</Altitude>
      <Canton>VS/I</Canton>
    </Peak>
    <Peak>
      <Name>Crête de Barneuza</Name>
      <Longitude>7.64141383192</Longitude>
      <Latitude>46.1733267103</Latitude>
      <Altitude>2726</Altitude>
      <Canton>VS</Canton>
    </Peak>
    <Peak>
      <Name>Pizzo Barone</Name>
      <Longitude>8.74209612017</Longitude>
      <Latitude>46.4057090897</Latitude>
      <Altitude>2864</Altitude>
      <Canton>TI</Canton>
    </Peak>
    <Peak>
      <Name>Inners Barrhorn</Name>
      <Longitude>7.73723433352</Longitude>
      <Latitude>46.1496355975</Latitude>
      <Altitude>3583</Altitude>
      <Canton>VS</Canton>
    </Peak>
    <Peak>
      <Name>Üssers Barrhorn</Name>
      <Longitude>7.73409691943</Longitude>
      <Latitude>46.1558508065</Latitude>
      <Altitude>3610</Altitude>
      <Canton>VS</Canton>
    </Peak>
    <Peak>
      <Name>Piz Barscheinz</Name>
      <Longitude>9.67594965857</Longitude>
      <Latitude>46.4763976213</Latitude>
      <Altitude>2617</Altitude>
      <Canton>GR</Canton>
    </Peak>
    <Peak>
      <Name>Prato della Bascióta</Name>
      <Longitude>9.07788600369</Longitude>
      <Latitude>46.109653477</Latitude>
      <Altitude>2076</Altitude>
      <Canton>TI/I</Canton>
    </Peak>
    <Peak>
      <Name>Munt Baselgia</Name>
      <Longitude>10.1240693822</Longitude>
      <Latitude>46.7123583119</Latitude>
      <Altitude>2682</Altitude>
      <Canton>GR</Canton>
    </Peak>
    <Peak>
      <Name>Basòdino</Name>
      <Longitude>8.46837686112</Longitude>
      <Latitude>46.4115825825</Latitude>
      <Altitude>3274</Altitude>
      <Canton>TI/I</Canton>
    </Peak>
    <Peak>
      <Name>Pizzo della Bassa</Name>
      <Longitude>8.62662822904</Longitude>
      <Latitude>46.2433283055</Latitude>
      <Altitude>2024</Altitude>
      <Canton>TI</Canton>
    </Peak>
    <Peak>
      <Name>Le Basset</Name>
      <Longitude>7.12411726258</Longitude>
      <Latitude>45.9255597403</Latitude>
      <Altitude>2771</Altitude>
      <Canton>VS</Canton>
    </Peak>
    <Peak>
      <Name>Torent Basso</Name>
      <Longitude>9.0521350783</Longitude>
      <Latitude>46.3456230437</Latitude>
      <Altitude>2820</Altitude>
      <Canton>TI</Canton>
    </Peak>
    <Peak>
      <Name>Bastillons</Name>
      <Longitude>7.15107554707</Longitude>
      <Latitude>45.8853328756</Latitude>
      <Altitude>2797</Altitude>
      <Canton>VS</Canton>
    </Peak>
    <Peak>
      <Name>Bastiun</Name>
      <Longitude>9.76871375382</Longitude>
      <Latitude>46.5388335567</Latitude>
      <Altitude>2610</Altitude>
      <Canton>GR</Canton>
    </Peak>
    <Peak>
      <Name>Batnall</Name>
      <Longitude>8.44057475829</Longitude>
      <Latitude>46.3041002559</Latitude>
      <Altitude>2748</Altitude>
      <Canton>TI/I</Canton>
    </Peak>
    <Peak>
      <Name>Aiguilles de Baulmes</Name>
      <Longitude>6.47237420698</Longitude>
      <Latitude>46.7911971985</Latitude>
      <Altitude>1559</Altitude>
      <Canton>VD</Canton>
    </Peak>
    <Peak>
      <Name>Tour de Bavon</Name>
      <Longitude>7.15186174072</Longitude>
      <Latitude>45.9689915952</Latitude>
      <Altitude>2477</Altitude>
      <Canton>VS</Canton>
    </Peak>
    <Peak>
      <Name>Beaufort</Name>
      <Longitude>7.24850197302</Longitude>
      <Latitude>45.9457634059</Latitude>
      <Altitude>3047</Altitude>
      <Canton>VS</Canton>
    </Peak>
    <Peak>
      <Name>Grand Bec</Name>
      <Longitude>7.0452317043</Longitude>
      <Latitude>46.0328972691</Latitude>
      <Altitude>2615</Altitude>
      <Canton>VS</Canton>
    </Peak>
    <Peak>
      <Name>Bécor</Name>
      <Longitude>6.81111404949</Longitude>
      <Latitude>46.2147660997</Latitude>
      <Altitude>2207</Altitude>
      <Canton>VS/F</Canton>
    </Peak>
    <Peak>
      <Name>Pizzo Bedeglia</Name>
      <Longitude>8.77001523843</Longitude>
      <Latitude>46.3959830774</Latitude>
      <Altitude>2666</Altitude>
      <Canton>TI</Canton>
    </Peak>
    <Peak>
      <Name>Pizzo della Bedeia</Name>
      <Longitude>8.77001523843</Longitude>
      <Latitude>46.3959830774</Latitude>
      <Altitude>2666</Altitude>
      <Canton>TI</Canton>
    </Peak>
    <Peak>
      <Name>Cima de la Bedoleta</Name>
      <Longitude>9.15942393206</Longitude>
      <Latitude>46.410312881</Latitude>
      <Altitude>2627</Altitude>
      <Canton>GR</Canton>
    </Peak>
    <Peak>
      <Name>Bedriolhorn</Name>
      <Longitude>8.46648989108</Longitude>
      <Latitude>46.3771885026</Latitude>
      <Altitude>2921</Altitude>
      <Canton>TI/I</Canton>
    </Peak>
    <Peak>
      <Name>Beeswanghorn</Name>
      <Longitude>7.92226859662</Longitude>
      <Latitude>46.5085556103</Latitude>
      <Altitude>2734</Altitude>
      <Canton>BE</Canton>
    </Peak>
    <Peak>
      <Name>Beggistock</Name>
      <Longitude>8.93661949604</Longitude>
      <Latitude>46.8492067344</Latitude>
      <Altitude>2635</Altitude>
      <Canton>GL</Canton>
    </Peak>
    <Peak>
      <Name>Bei der Kirchen</Name>
      <Longitude>10.3924940366</Longitude>
      <Latitude>46.9944493094</Latitude>
      <Altitude>2731</Altitude>
      <Canton>GR</Canton>
    </Peak>
    <Peak>
      <Name>Beichgrat</Name>
      <Longitude>7.92895042761</Longitude>
      <Latitude>46.4406537444</Latitude>
      <Altitude>3294</Altitude>
      <Canton>VS</Canton>
    </Peak>
    <Peak>
      <Name>Beichlen</Name>
      <Longitude>7.97327270906</Longitude>
      <Latitude>46.8976156227</Latitude>
      <Altitude>1770</Altitude>
      <Canton>LU</Canton>
    </Peak>
    <Peak>
      <Name>Beichspitza</Name>
      <Longitude>7.91514668126</Longitude>
      <Latitude>46.4320765632</Latitude>
      <Altitude>3208</Altitude>
      <Canton>VS</Canton>
    </Peak>
    <Peak>
      <Name>Term Bel</Name>
      <Longitude>9.49745322362</Longitude>
      <Latitude>46.8008457097</Latitude>
      <Altitude>2160</Altitude>
      <Canton>GR</Canton>
    </Peak>
    <Peak>
      <Name>Belchenflue</Name>
      <Longitude>7.80723325282</Longitude>
      <Latitude>47.3624547813</Latitude>
      <Altitude>1123</Altitude>
      <Canton>BL/SO</Canton>
    </Peak>
    <Peak>
      <Name>Pianca Bella</Name>
      <Longitude>8.91109176962</Longitude>
      <Latitude>46.4218156127</Latitude>
      <Altitude>2163</Altitude>
      <Canton>TI</Canton>
    </Peak>
    <Peak>
      <Name>Tête de Bellalué</Name>
      <Longitude>7.17356752494</Longitude>
      <Latitude>46.268551323</Latitude>
      <Altitude>2603</Altitude>
      <Canton>VD</Canton>
    </Peak>
    <Peak>
      <Name>Bellavista</Name>
      <Longitude>9.93221418538</Longitude>
      <Latitude>46.3737210751</Latitude>
      <Altitude>3922</Altitude>
      <Canton>GR/I</Canton>
    </Peak>
    <Peak>
      <Name>Pointe de Bellevue</Name>
      <Longitude>6.88759108272</Longitude>
      <Latitude>46.2576698356</Latitude>
      <Altitude>2042</Altitude>
      <Canton>VS</Canton>
    </Peak>
    <Peak>
      <Name>Sasso Bello</Name>
      <Longitude>8.6637302116</Longitude>
      <Latitude>46.3247573935</Latitude>
      <Altitude>2295</Altitude>
      <Canton>TI</Canton>
    </Peak>
    <Peak>
      <Name>Belpberg</Name>
      <Longitude>7.52584457236</Longitude>
      <Latitude>46.8601956833</Latitude>
      <Altitude>892</Altitude>
      <Canton>BE</Canton>
    </Peak>
    <Peak>
      <Name>Piz Belvair</Name>
      <Longitude>9.91913202352</Longitude>
      <Latitude>46.6122857952</Latitude>
      <Altitude>2822</Altitude>
      <Canton>GR</Canton>
    </Peak>
    <Peak>
      <Name>Beretenchopf</Name>
      <Longitude>7.74649232793</Longitude>
      <Latitude>47.3428449132</Latitude>
      <Altitude>1104</Altitude>
      <Canton>SO</Canton>
    </Peak>
    <Peak>
      <Name>Trône du Berger</Name>
      <Longitude>7.00279942796</Longitude>
      <Latitude>46.0253648083</Latitude>
      <Altitude>2320</Altitude>
      <Canton>VS</Canton>
    </Peak>
    <Peak>
      <Name>Bergli</Name>
      <Longitude>9.40855336039</Longitude>
      <Latitude>47.1306609301</Latitude>
      <Altitude>2123</Altitude>
      <Canton>SG</Canton>
    </Peak>
    <Peak>
      <Name>Berglichopf</Name>
      <Longitude>8.77855989636</Longitude>
      <Latitude>46.8869742678</Latitude>
      <Altitude>2308</Altitude>
      <Canton>UR</Canton>
    </Peak>
    <Peak>
      <Name>Bergligrat</Name>
      <Longitude>9.12395889671</Longitude>
      <Latitude>46.9436359927</Latitude>
      <Altitude>2428</Altitude>
      <Canton>GL</Canton>
    </Peak>
    <Peak>
      <Name>Berglihorn</Name>
      <Longitude>9.12395889671</Longitude>
      <Latitude>46.9436359927</Latitude>
      <Altitude>2428</Altitude>
      <Canton>GL</Canton>
    </Peak>
    <Peak>
      <Name>Berglistock</Name>
      <Longitude>8.14071418867</Longitude>
      <Latitude>46.6150528334</Latitude>
      <Altitude>3656</Altitude>
      <Canton>BE</Canton>
    </Peak>
    <Peak>
      <Name>Bergseeschijen</Name>
      <Longitude>8.48572708453</Longitude>
      <Latitude>46.6636825683</Latitude>
      <Altitude>2816</Altitude>
      <Canton>UR</Canton>
    </Peak>
    <Peak>
      <Name>Berneuse</Name>
      <Longitude>7.00187350559</Longitude>
      <Latitude>46.3595507022</Latitude>
      <Altitude>2048</Altitude>
      <Canton>VD</Canton>
    </Peak>
    <Peak>
      <Name>Piz Bernina</Name>
      <Longitude>9.90809475552</Longitude>
      <Latitude>46.3823043884</Latitude>
      <Altitude>4049</Altitude>
      <Canton>GR</Canton>
    </Peak>
    <Peak>
      <Name>Croix des Berons</Name>
      <Longitude>6.99358212711</Longitude>
      <Latitude>46.0075176068</Latitude>
      <Altitude>2902</Altitude>
      <Canton>VS</Canton>
    </Peak>
    <Peak>
      <Name>Pointe des Berons</Name>
      <Longitude>6.9841722307</Longitude>
      <Latitude>46.0058158621</Latitude>
      <Altitude>2954</Altitude>
      <Canton>VS/F</Canton>
    </Peak>
    <Peak>
      <Name>La Berra</Name>
      <Longitude>7.18398431584</Longitude>
      <Latitude>46.6759429885</Latitude>
      <Altitude>1719</Altitude>
      <Canton>FR</Canton>
    </Peak>
    <Peak>
      <Name>Dents de Bertol</Name>
      <Longitude>7.53860224329</Longitude>
      <Latitude>45.9973330571</Latitude>
      <Altitude>3547</Altitude>
      <Canton>VS</Canton>
    </Peak>
    <Peak>
      <Name>Pointe de Bertol</Name>
      <Longitude>7.52816749281</Longitude>
      <Latitude>46.0095305893</Latitude>
      <Altitude>3499</Altitude>
      <Canton>VS</Canton>
    </Peak>
    <Peak>
      <Name>Blais da la Bês-cha</Name>
      <Longitude>9.82832917789</Longitude>
      <Latitude>46.5288209542</Latitude>
      <Altitude>2703</Altitude>
      <Canton>GR</Canton>
    </Peak>
    <Peak>
      <Name>Mandra da la Bes-cha</Name>
      <Longitude>9.83888812235</Longitude>
      <Latitude>46.4361702867</Latitude>
      <Altitude>2841</Altitude>
      <Canton>GR</Canton>
    </Peak>
    <Peak>
      <Name>Munt da la Bês-cha</Name>
      <Longitude>9.90994437091</Longitude>
      <Latitude>46.508535079</Latitude>
      <Altitude>2647</Altitude>
      <Canton>GR</Canton>
    </Peak>
    <Peak>
      <Name>Munt da la Bescha</Name>
      <Longitude>10.309063106</Longitude>
      <Latitude>46.6513200977</Latitude>
      <Altitude>2773</Altitude>
      <Canton>GR</Canton>
    </Peak>
    <Peak>
      <Name>Pointe de Bésery</Name>
      <Longitude>7.07251559186</Longitude>
      <Latitude>46.1727805415</Latitude>
      <Altitude>2409</Altitude>
      <Canton>VS</Canton>
    </Peak>
    <Peak>
      <Name>Pointe Bessard</Name>
      <Longitude>7.44482954089</Longitude>
      <Latitude>45.9703012117</Latitude>
      <Altitude>3673</Altitude>
      <Canton>VS</Canton>
    </Peak>
    <Peak>
      <Name>Crêta Besse</Name>
      <Longitude>7.35458870317</Longitude>
      <Latitude>46.3068369465</Latitude>
      <Altitude>2702</Altitude>
      <Canton>VS</Canton>
    </Peak>
    <Peak>
      <Name>Besso</Name>
      <Longitude>7.6587052286</Longitude>
      <Latitude>46.0782564703</Latitude>
      <Altitude>3668</Altitude>
      <Canton>VS</Canton>
    </Peak>
    <Peak>
      <Name>Bettelmatthorn</Name>
      <Longitude>8.35104131714</Longitude>
      <Latitude>46.4415096595</Latitude>
      <Altitude>3044</Altitude>
      <Canton>VS/I</Canton>
    </Peak>
    <Peak>
      <Name>Bettlerstock</Name>
      <Longitude>8.41109328326</Longitude>
      <Latitude>46.8476849773</Latitude>
      <Altitude>2099</Altitude>
      <Canton>OW</Canton>
    </Peak>
    <Peak>
      <Name>Bettmerhorn</Name>
      <Longitude>8.08010638224</Longitude>
      <Latitude>46.4141719881</Latitude>
      <Altitude>2857</Altitude>
      <Canton>VS</Canton>
    </Peak>
    <Peak>
      <Name>Piz Bever Pitschen</Name>
      <Longitude>9.76266017777</Longitude>
      <Latitude>46.5269431054</Latitude>
      <Altitude>2977</Altitude>
      <Canton>GR</Canton>
    </Peak>
    <Peak>
      <Name>Piz Bever</Name>
      <Longitude>9.75926599617</Longitude>
      <Latitude>46.5222877157</Latitude>
      <Altitude>3230</Altitude>
      <Canton>GR</Canton>
    </Peak>
    <Peak>
      <Name>Piz Beverin</Name>
      <Longitude>9.35792046918</Longitude>
      <Latitude>46.6525557431</Latitude>
      <Altitude>2998</Altitude>
      <Canton>GR</Canton>
    </Peak>
    <Peak>
      <Name>Piz Bial</Name>
      <Longitude>9.75614585121</Longitude>
      <Latitude>46.5590244411</Latitude>
      <Altitude>3061</Altitude>
      <Canton>GR</Canton>
    </Peak>
    <Peak>
      <Name>Piz Posta Biala</Name>
      <Longitude>8.93423372022</Longitude>
      <Latitude>46.7798708955</Latitude>
      <Altitude>3074</Altitude>
      <Canton>GR</Canton>
    </Peak>
    <Peak>
      <Name>Cima Bianca</Name>
      <Longitude>8.81239467092</Longitude>
      <Latitude>46.3877852423</Latitude>
      <Altitude>2612</Altitude>
      <Canton>TI</Canton>
    </Peak>
    <Peak>
      <Name>Cima della Bianca</Name>
      <Longitude>8.86282621668</Longitude>
      <Latitude>46.5730429062</Latitude>
      <Altitude>2893</Altitude>
      <Canton>GR/TI</Canton>
    </Peak>
    <Peak>
      <Name>Motta Bianca</Name>
      <Longitude>10.0324505231</Longitude>
      <Latitude>46.4236736013</Latitude>
      <Altitude>2561</Altitude>
      <Canton>GR</Canton>
    </Peak>
    <Peak>
      <Name>Piz Bianch</Name>
      <Longitude>9.25798922807</Longitude>
      <Latitude>46.4498956942</Latitude>
      <Altitude>3037</Altitude>
      <Canton>GR/I</Canton>
    </Peak>
    <Peak>
      <Name>Cavallo Bianco</Name>
      <Longitude>9.07669437948</Longitude>
      <Latitude>46.4319172438</Latitude>
      <Altitude>2816</Altitude>
      <Canton>TI</Canton>
    </Peak>
    <Peak>
      <Name>Pizzo Bianco (Piz Alv)</Name>
      <Longitude>9.90650808006</Longitude>
      <Latitude>46.384588968</Latitude>
      <Altitude>3995</Altitude>
      <Canton>GR</Canton>
    </Peak>
    <Peak>
      <Name>Cima di Biasagn</Name>
      <Longitude>9.03000808802</Longitude>
      <Latitude>46.3996958163</Latitude>
      <Altitude>2417</Altitude>
      <Canton>TI</Canton>
    </Peak>
    <Peak>
      <Name>Cima di Biasca</Name>
      <Longitude>9.02259103636</Longitude>
      <Latitude>46.3460849107</Latitude>
      <Altitude>2574</Altitude>
      <Canton>TI</Canton>
    </Peak>
    <Peak>
      <Name>Pizzo Bidensc</Name>
      <Longitude>9.07000159982</Longitude>
      <Latitude>46.3673212226</Latitude>
      <Altitude>2265</Altitude>
      <Canton>TI</Canton>
    </Peak>
    <Peak>
      <Name>Grüen Biel</Name>
      <Longitude>8.49503455886</Longitude>
      <Latitude>46.8289031953</Latitude>
      <Altitude>2127</Altitude>
      <Canton>UR</Canton>
    </Peak>
    <Peak>
      <Name>Pizzo Biela</Name>
      <Longitude>8.46418724203</Longitude>
      <Latitude>46.3447324116</Latitude>
      <Altitude>2863</Altitude>
      <Canton>TI/I</Canton>
    </Peak>
    <Peak>
      <Name>Chli Bielenhorn</Name>
      <Longitude>8.43480918999</Longitude>
      <Latitude>46.5987809719</Latitude>
      <Altitude>2940</Altitude>
      <Canton>UR</Canton>
    </Peak>
    <Peak>
      <Name>Gross Bielenhorn</Name>
      <Longitude>8.42752916587</Longitude>
      <Latitude>46.6039273357</Latitude>
      <Altitude>3210</Altitude>
      <Canton>UR</Canton>
    </Peak>
    <Peak>
      <Name>Monts de Bière</Name>
      <Longitude>6.2727448757</Longitude>
      <Latitude>46.5586191198</Latitude>
      <Altitude>1529</Altitude>
      <Canton>VD</Canton>
    </Peak>
    <Peak>
      <Name>Biet</Name>
      <Longitude>8.84120573055</Longitude>
      <Latitude>47.0374120208</Latitude>
      <Altitude>1966</Altitude>
      <Canton>SZ</Canton>
    </Peak>
    <Peak>
      <Name>Bietenhorn</Name>
      <Longitude>7.86476247468</Longitude>
      <Latitude>46.5769733444</Latitude>
      <Altitude>2756</Altitude>
      <Canton>BE</Canton>
    </Peak>
    <Peak>
      <Name>Bietschhorn</Name>
      <Longitude>7.85076145267</Longitude>
      <Latitude>46.3915328648</Latitude>
      <Altitude>3934</Altitude>
      <Canton>VS</Canton>
    </Peak>
    <Peak>
      <Name>Bietstöck</Name>
      <Longitude>8.45472433207</Longitude>
      <Latitude>46.8737991924</Latitude>
      <Altitude>2212</Altitude>
      <Canton>NW</Canton>
    </Peak>
    <Peak>
      <Name>Bifertengrätli</Name>
      <Longitude>8.93775579008</Longitude>
      <Latitude>46.8240901951</Latitude>
      <Altitude>2520</Altitude>
      <Canton>GL</Canton>
    </Peak>
    <Peak>
      <Name>Bifertenstock</Name>
      <Longitude>8.9575118515</Longitude>
      <Latitude>46.8042157765</Latitude>
      <Altitude>3419</Altitude>
      <Canton>GL/GR</Canton>
    </Peak>
    <Peak>
      <Name>Biflenhorn</Name>
      <Longitude>9.20668434687</Longitude>
      <Latitude>46.9084684176</Latitude>
      <Altitude>2165</Altitude>
      <Canton>GL</Canton>
    </Peak>
    <Peak>
      <Name>Grosses Bigerhorn</Name>
      <Longitude>7.87031894161</Longitude>
      <Latitude>46.1450673119</Latitude>
      <Altitude>3626</Altitude>
      <Canton>VS</Canton>
    </Peak>
    <Peak>
      <Name>Kleines Bigerhorn</Name>
      <Longitude>7.85693040342</Longitude>
      <Latitude>46.1459273067</Latitude>
      <Altitude>3182</Altitude>
      <Canton>VS</Canton>
    </Peak>
    <Peak>
      <Name>Bim Signal</Name>
      <Longitude>8.19929880027</Longitude>
      <Latitude>46.6916370649</Latitude>
      <Altitude>2061</Altitude>
      <Canton>BE</Canton>
    </Peak>
    <Peak>
      <Name>Bim spitze Stei</Name>
      <Longitude>7.72380150461</Longitude>
      <Latitude>46.4768872771</Latitude>
      <Altitude>2973</Altitude>
      <Canton>BE</Canton>
    </Peak>
    <Peak>
      <Name>Dent des Bimis</Name>
      <Longitude>7.1732489124</Longitude>
      <Latitude>46.5334279401</Latitude>
      <Altitude>2161</Altitude>
      <Canton>FR/VD</Canton>
    </Peak>
    <Peak>
      <Name>Bin der Chlempen</Name>
      <Longitude>8.3426838074</Longitude>
      <Latitude>46.6896460681</Latitude>
      <Altitude>2226</Altitude>
      <Canton>BE</Canton>
    </Peak>
    <Peak>
      <Name>Le Biolet</Name>
      <Longitude>7.17924875233</Longitude>
      <Latitude>46.4373681098</Latitude>
      <Altitude>2293</Altitude>
      <Canton>VD</Canton>
    </Peak>
    <Peak>
      <Name>Bira</Name>
      <Longitude>7.96327199399</Longitude>
      <Latitude>46.6593678804</Latitude>
      <Altitude>2506</Altitude>
      <Canton>BE</Canton>
    </Peak>
    <Peak>
      <Name>Bira</Name>
      <Longitude>7.96327199399</Longitude>
      <Latitude>46.6593678804</Latitude>
      <Altitude>2453</Altitude>
      <Canton>BE</Canton>
    </Peak>
    <Peak>
      <Name>Birchenzughöreli</Name>
      <Longitude>10.0392636088</Longitude>
      <Latitude>46.8572054746</Latitude>
      <Altitude>2454</Altitude>
      <Canton>GR</Canton>
    </Peak>
    <Peak>
      <Name>Bire</Name>
      <Longitude>7.69824700038</Longitude>
      <Latitude>46.510817209</Latitude>
      <Altitude>2502</Altitude>
      <Canton>BE</Canton>
    </Peak>
    <Peak>
      <Name>Bireflue</Name>
      <Longitude>7.26723815117</Longitude>
      <Latitude>46.5720196964</Latitude>
      <Altitude>2076</Altitude>
      <Canton>BE/FR</Canton>
    </Peak>
    <Peak>
      <Name>Birehubel</Name>
      <Longitude>7.43164058002</Longitude>
      <Latitude>46.7118043399</Latitude>
      <Altitude>1850</Altitude>
      <Canton>BE</Canton>
    </Peak>
    <Peak>
      <Name>Birg</Name>
      <Longitude>7.85766425954</Longitude>
      <Latitude>46.5616170269</Latitude>
      <Altitude>2677</Altitude>
      <Canton>BE</Canton>
    </Peak>
    <Peak>
      <Name>Birghorn</Name>
      <Longitude>7.7891438178</Longitude>
      <Latitude>46.452955811</Latitude>
      <Altitude>3243</Altitude>
      <Canton>BE/VS</Canton>
    </Peak>
    <Peak>
      <Name>Birgischgrat</Name>
      <Longitude>7.95417326136</Longitude>
      <Latitude>46.3424876421</Latitude>
      <Altitude>2396</Altitude>
      <Canton>VS</Canton>
    </Peak>
    <Peak>
      <Name>Birglistock</Name>
      <Longitude>8.25730599176</Longitude>
      <Latitude>46.6545317244</Latitude>
      <Altitude>2141</Altitude>
      <Canton>BE</Canton>
    </Peak>
    <Peak>
      <Name>Bischofspitze</Name>
      <Longitude>10.2308099384</Longitude>
      <Latitude>46.869428952</Latitude>
      <Altitude>3029</Altitude>
      <Canton>GR/A</Canton>
    </Peak>
    <Peak>
      <Name>Cornettes de Bise</Name>
      <Longitude>6.78469011788</Longitude>
      <Latitude>46.3325076778</Latitude>
      <Altitude>2432</Altitude>
      <Canton>VS/F</Canton>
    </Peak>
    <Peak>
      <Name>Tête Biselx</Name>
      <Longitude>7.03816116144</Longitude>
      <Latitude>45.9842966339</Latitude>
      <Altitude>3509</Altitude>
      <Canton>VS</Canton>
    </Peak>
    <Peak>
      <Name>Bishorn</Name>
      <Longitude>7.71494103888</Longitude>
      <Latitude>46.117937984</Latitude>
      <Altitude>4153</Altitude>
      <Canton>VS</Canton>
    </Peak>
    <Peak>
      <Name>Blackenstock</Name>
      <Longitude>8.53768254518</Longitude>
      <Latitude>46.8409160375</Latitude>
      <Altitude>2930</Altitude>
      <Canton>UR</Canton>
    </Peak>
    <Peak>
      <Name>Munt Blais</Name>
      <Longitude>10.0347217178</Longitude>
      <Latitude>46.6191580045</Latitude>
      <Altitude>2455</Altitude>
      <Canton>GR</Canton>
    </Peak>
    <Peak>
      <Name>Piz da las Blais</Name>
      <Longitude>9.83345331097</Longitude>
      <Latitude>46.5724070284</Latitude>
      <Altitude>2930</Altitude>
      <Canton>GR</Canton>
    </Peak>
    <Peak>
      <Name>Piz Blaisch Lunga</Name>
      <Longitude>10.2039182226</Longitude>
      <Latitude>46.8645919635</Latitude>
      <Altitude>3230</Altitude>
      <Canton>GR</Canton>
    </Peak>
    <Peak>
      <Name>Piz Blaisun</Name>
      <Longitude>9.86282677659</Longitude>
      <Latitude>46.6031942389</Latitude>
      <Altitude>3200</Altitude>
      <Canton>GR</Canton>
    </Peak>
    <Peak>
      <Name>Cheval Blanc</Name>
      <Longitude>7.23070575596</Longitude>
      <Latitude>46.5743426545</Latitude>
      <Altitude>2147</Altitude>
      <Canton>FR</Canton>
    </Peak>
    <Peak>
      <Name>Le Cheval Blanc</Name>
      <Longitude>6.87280425531</Longitude>
      <Latitude>46.051953897</Latitude>
      <Altitude>2831</Altitude>
      <Canton>VS/F</Canton>
    </Peak>
    <Peak>
      <Name>Tournelon Blanc</Name>
      <Longitude>7.32220996702</Longitude>
      <Latitude>45.9697014554</Latitude>
      <Altitude>3702</Altitude>
      <Canton>VS</Canton>
    </Peak>
    <Peak>
      <Name>Dent Blanch</Name>
      <Longitude>10.0000261183</Longitude>
      <Latitude>46.3131657235</Latitude>
      <Altitude>2808</Altitude>
      <Canton>GR</Canton>
    </Peak>
    <Peak>
      <Name>Piz Blanch</Name>
      <Longitude>9.644243659</Longitude>
      <Latitude>46.4031348407</Latitude>
      <Altitude>2394</Altitude>
      <Canton>GR</Canton>
    </Peak>
    <Peak>
      <Name>Sasc Blanch</Name>
      <Longitude>9.72008275212</Longitude>
      <Latitude>46.383005368</Latitude>
      <Altitude>2645</Altitude>
      <Canton>GR</Canton>
    </Peak>
    <Peak>
      <Name>Dent Blanche</Name>
      <Longitude>7.6120313225</Longitude>
      <Latitude>46.0342601038</Latitude>
      <Altitude>2818</Altitude>
      <Canton>BE/VS</Canton>
    </Peak>
    <Peak>
      <Name>Dent Blanche</Name>
      <Longitude>7.6120313225</Longitude>
      <Latitude>46.0342601038</Latitude>
      <Altitude>4357</Altitude>
      <Canton>VS</Canton>
    </Peak>
    <Peak>
      <Name>Tête Blanche</Name>
      <Longitude>7.31523399549</Longitude>
      <Latitude>45.9167565685</Latitude>
      <Altitude>3710</Altitude>
      <Canton>VS/I</Canton>
    </Peak>
    <Peak>
      <Name>Tête Blanche</Name>
      <Longitude>7.31523399549</Longitude>
      <Latitude>45.9167565685</Latitude>
      <Altitude>3421</Altitude>
      <Canton>VS/F</Canton>
    </Peak>
    <Peak>
      <Name>Tête Blanche</Name>
      <Longitude>7.31523399549</Longitude>
      <Latitude>45.9167565685</Latitude>
      <Altitude>3418</Altitude>
      <Canton>VS/I</Canton>
    </Peak>
    <Peak>
      <Name>Grand Blanchen</Name>
      <Longitude>7.47493022928</Longitude>
      <Latitude>45.936563069</Latitude>
      <Altitude>3679</Altitude>
      <Canton>VS/I</Canton>
    </Peak>
    <Peak>
      <Name>Petit Blanchen</Name>
      <Longitude>7.47125425155</Longitude>
      <Latitude>45.933955558</Latitude>
      <Altitude>3592</Altitude>
      <Canton>VS/I</Canton>
    </Peak>
    <Peak>
      <Name>Dents Blanches</Name>
      <Longitude>6.83897175468</Longitude>
      <Latitude>46.1326956545</Latitude>
      <Altitude>2738</Altitude>
      <Canton>VS/F</Canton>
    </Peak>
    <Peak>
      <Name>Peder Blanchetta</Name>
      <Longitude>9.7543705092</Longitude>
      <Latitude>46.6698892402</Latitude>
      <Altitude>2402</Altitude>
      <Canton>GR</Canton>
    </Peak>
    <Peak>
      <Name>Motta Blantse</Name>
      <Longitude>7.55671441807</Longitude>
      <Latitude>46.1365652625</Latitude>
      <Altitude>2776</Altitude>
      <Canton>VS</Canton>
    </Peak>
    <Peak>
      <Name>Piz Blas</Name>
      <Longitude>8.72795921644</Longitude>
      <Latitude>46.5770801258</Latitude>
      <Altitude>3019</Altitude>
      <Canton>GR/TI</Canton>
    </Peak>
    <Peak>
      <Name>Blasenflue</Name>
      <Longitude>7.69765622645</Longitude>
      <Latitude>46.9323481573</Latitude>
      <Altitude>1118</Altitude>
      <Canton>BE</Canton>
    </Peak>
    <Peak>
      <Name>Blashorn</Name>
      <Longitude>8.36694262313</Longitude>
      <Latitude>46.499991276</Latitude>
      <Altitude>2777</Altitude>
      <Canton>VS</Canton>
    </Peak>
    <Peak>
      <Name>Schwarzi Blatte</Name>
      <Longitude>7.75174231711</Longitude>
      <Latitude>46.230601895</Latitude>
      <Altitude>2975</Altitude>
      <Canton>VS</Canton>
    </Peak>
    <Peak>
      <Name>Blatthörner</Name>
      <Longitude>8.2279320328</Longitude>
      <Latitude>46.5263206285</Latitude>
      <Altitude>3040</Altitude>
      <Canton>BE/VS</Canton>
    </Peak>
    <Peak>
      <Name>Blattistand</Name>
      <Longitude>7.23228589708</Longitude>
      <Latitude>46.382288565</Latitude>
      <Altitude>2019</Altitude>
      <Canton>BE</Canton>
    </Peak>
    <Peak>
      <Name>Blattjegrat</Name>
      <Longitude>8.15852953867</Longitude>
      <Latitude>46.3205030588</Latitude>
      <Altitude>2407</Altitude>
      <Canton>VS</Canton>
    </Peak>
    <Peak>
      <Name>Blattjigrat</Name>
      <Longitude>7.78685301201</Longitude>
      <Latitude>46.3596773493</Latitude>
      <Altitude>3026</Altitude>
      <Canton>VS</Canton>
    </Peak>
    <Peak>
      <Name>Piz Lai Blau</Name>
      <Longitude>8.76512610476</Longitude>
      <Latitude>46.5976606244</Latitude>
      <Altitude>2961</Altitude>
      <Canton>GR</Canton>
    </Peak>
    <Peak>
      <Name>Blauberg</Name>
      <Longitude>8.41992678642</Longitude>
      <Latitude>46.5662087297</Latitude>
      <Altitude>2955</Altitude>
      <Canton>UR</Canton>
    </Peak>
    <Peak>
      <Name>Blauberg</Name>
      <Longitude>8.41992678642</Longitude>
      <Latitude>46.5662087297</Latitude>
      <Altitude>2729</Altitude>
      <Canton>TI/UR</Canton>
    </Peak>
    <Peak>
      <Name>Blauberg</Name>
      <Longitude>8.41992678642</Longitude>
      <Latitude>46.5662087297</Latitude>
      <Altitude>2768</Altitude>
      <Canton>UR/VS</Canton>
    </Peak>
    <Peak>
      <Name>Blauberg Stock</Name>
      <Longitude>8.4827656317</Longitude>
      <Latitude>46.618638065</Latitude>
      <Altitude>2865</Altitude>
      <Canton>UR</Canton>
    </Peak>
    <Peak>
      <Name>Oberer Blausatz</Name>
      <Longitude>7.6344149664</Longitude>
      <Latitude>46.0091711626</Latitude>
      <Altitude>3209</Altitude>
      <Canton>VS</Canton>
    </Peak>
    <Peak>
      <Name>Unterer Blausatz</Name>
      <Longitude>7.63705299024</Longitude>
      <Latitude>46.0068277383</Latitude>
      <Altitude>3067</Altitude>
      <Canton>VS</Canton>
    </Peak>
    <Peak>
      <Name>Blauw Höreli</Name>
      <Longitude>8.73995926264</Longitude>
      <Latitude>46.8508486277</Latitude>
      <Altitude>2404</Altitude>
      <Canton>UR</Canton>
    </Peak>
    <Peak>
      <Name>Mont Blava</Name>
      <Longitude>7.38809914606</Longitude>
      <Latitude>46.0748166694</Latitude>
      <Altitude>2932</Altitude>
      <Canton>VS</Canton>
    </Peak>
    <Peak>
      <Name>Piz Bleis Marscha</Name>
      <Longitude>9.71969397544</Longitude>
      <Latitude>46.5701558501</Latitude>
      <Altitude>3128</Altitude>
      <Canton>GR</Canton>
    </Peak>
    <Peak>
      <Name>Fil Blengias</Name>
      <Longitude>9.03333418352</Longitude>
      <Latitude>46.6190970364</Latitude>
      <Altitude>2556</Altitude>
      <Canton>GR</Canton>
    </Peak>
    <Peak>
      <Name>Piz Bles</Name>
      <Longitude>9.46688641246</Longitude>
      <Latitude>46.3981222022</Latitude>
      <Altitude>3045</Altitude>
      <Canton>GR/I</Canton>
    </Peak>
    <Peak>
      <Name>Bleschaturra</Name>
      <Longitude>9.12560014297</Longitude>
      <Latitude>46.5587428998</Latitude>
      <Altitude>2558</Altitude>
      <Canton>GR</Canton>
    </Peak>
    <Peak>
      <Name>Bleschaturra</Name>
      <Longitude>9.12560014297</Longitude>
      <Latitude>46.5587428998</Latitude>
      <Altitude>2733</Altitude>
      <Canton>GR</Canton>
    </Peak>
    <Peak>
      <Name>Bliejnduspitza</Name>
      <Longitude>7.82967329431</Longitude>
      <Latitude>46.4419836282</Latitude>
      <Altitude>2652</Altitude>
      <Canton>VS</Canton>
    </Peak>
    <Peak>
      <Name>Blinnenhorn</Name>
      <Longitude>8.30752187717</Longitude>
      <Latitude>46.4259278544</Latitude>
      <Altitude>3374</Altitude>
      <Canton>VS/I</Canton>
    </Peak>
    <Peak>
      <Name>Klein Blinnenhorn</Name>
      <Longitude>8.30541792265</Longitude>
      <Latitude>46.4285978117</Latitude>
      <Altitude>3317</Altitude>
      <Canton>VS</Canton>
    </Peak>
    <Peak>
      <Name>Blinzi</Name>
      <Longitude>8.73018080025</Longitude>
      <Latitude>46.8422777701</Latitude>
      <Altitude>2473</Altitude>
      <Canton>UR</Canton>
    </Peak>
    <Peak>
      <Name>Hinter Blistock</Name>
      <Longitude>9.1220770543</Longitude>
      <Latitude>46.9276034697</Latitude>
      <Altitude>2446</Altitude>
      <Canton>GL</Canton>
    </Peak>
    <Peak>
      <Name>Mittler Blistock</Name>
      <Longitude>9.12055717095</Longitude>
      <Latitude>46.9314946439</Latitude>
      <Altitude>2448</Altitude>
      <Canton>GL</Canton>
    </Peak>
    <Peak>
      <Name>Vorder Blistock</Name>
      <Longitude>9.12083996982</Longitude>
      <Latitude>46.9342346694</Latitude>
      <Altitude>2405</Altitude>
      <Canton>GL</Canton>
    </Peak>
    <Peak>
      <Name>Hinter Blistögg</Name>
      <Longitude>9.1220770543</Longitude>
      <Latitude>46.9276034697</Latitude>
      <Altitude>2446</Altitude>
      <Canton>GL</Canton>
    </Peak>
    <Peak>
      <Name>Mittler Blistögg</Name>
      <Longitude>9.12055717095</Longitude>
      <Latitude>46.9314946439</Latitude>
      <Altitude>2448</Altitude>
      <Canton>GL</Canton>
    </Peak>
    <Peak>
      <Name>Vorder Blistögg</Name>
      <Longitude>9.12083996982</Longitude>
      <Latitude>46.9342346694</Latitude>
      <Altitude>2405</Altitude>
      <Canton>GL</Canton>
    </Peak>
    <Peak>
      <Name>Blueme</Name>
      <Longitude>7.7152910055</Longitude>
      <Latitude>46.7484408128</Latitude>
      <Altitude>1392</Altitude>
      <Canton>BE</Canton>
    </Peak>
    <Peak>
      <Name>Blummhorn</Name>
      <Longitude>7.79612715287</Longitude>
      <Latitude>46.3473693388</Latitude>
      <Altitude>2499</Altitude>
      <Canton>VS</Canton>
    </Peak>
    <Peak>
      <Name>Blüemberg</Name>
      <Longitude>8.73511192172</Longitude>
      <Latitude>46.93542596</Latitude>
      <Altitude>2383</Altitude>
      <Canton>SZ/UR</Canton>
    </Peak>
    <Peak>
      <Name>Blüemlisalp</Name>
      <Longitude>7.7717916649</Longitude>
      <Latitude>46.4885860271</Latitude>
      <Altitude>3663</Altitude>
      <Canton>BE</Canton>
    </Peak>
    <Peak>
      <Name>Blüemlisalp Rothorn</Name>
      <Longitude>7.76310309506</Longitude>
      <Latitude>46.4948631719</Latitude>
      <Altitude>3297</Altitude>
      <Canton>BE</Canton>
    </Peak>
    <Peak>
      <Name>Blüemlisalphorn</Name>
      <Longitude>7.7717916649</Longitude>
      <Latitude>46.4885860271</Latitude>
      <Altitude>3663</Altitude>
      <Canton>BE</Canton>
    </Peak>
    <Peak>
      <Name>Blühendenspitzen</Name>
      <Longitude>7.82967329431</Longitude>
      <Latitude>46.4419836282</Latitude>
      <Altitude>2652</Altitude>
      <Canton>VS</Canton>
    </Peak>
    <Peak>
      <Name>Bläss Chopf</Name>
      <Longitude>9.17745551098</Longitude>
      <Latitude>47.206274637</Latitude>
      <Altitude>1458</Altitude>
      <Canton>SG</Canton>
    </Peak>
    <Peak>
      <Name>Blätzengrat</Name>
      <Longitude>8.59113545307</Longitude>
      <Latitude>46.5972158501</Latitude>
      <Altitude>2820</Altitude>
      <Canton>UR</Canton>
    </Peak>
    <Peak>
      <Name>Treutse Bô</Name>
      <Longitude>7.08491572152</Longitude>
      <Latitude>45.9578717017</Latitude>
      <Altitude>2918</Altitude>
      <Canton>VS</Canton>
    </Peak>
    <Peak>
      <Name>Aiguille de Bocheresse</Name>
      <Longitude>7.32398976256</Longitude>
      <Latitude>45.9822518106</Latitude>
      <Altitude>3345</Altitude>
      <Canton>VS</Canton>
    </Peak>
    <Peak>
      <Name>Bochtehorn</Name>
      <Longitude>8.27278870212</Longitude>
      <Latitude>46.366858984</Latitude>
      <Altitude>2474</Altitude>
      <Canton>VS</Canton>
    </Peak>
    <Peak>
      <Name>Bochtehorn</Name>
      <Longitude>8.27278870212</Longitude>
      <Latitude>46.366858984</Latitude>
      <Altitude>2770</Altitude>
      <Canton>VS/I</Canton>
    </Peak>
    <Peak>
      <Name>Bockberg</Name>
      <Longitude>8.42948060812</Longitude>
      <Latitude>46.7068724655</Latitude>
      <Altitude>2572</Altitude>
      <Canton>UR</Canton>
    </Peak>
    <Peak>
      <Name>Bockberg</Name>
      <Longitude>8.42948060812</Longitude>
      <Latitude>46.7068724655</Latitude>
      <Altitude>2632</Altitude>
      <Canton>BE</Canton>
    </Peak>
    <Peak>
      <Name>Bockbiel</Name>
      <Longitude>8.27700977908</Longitude>
      <Latitude>46.421434372</Latitude>
      <Altitude>2506</Altitude>
      <Canton>VS</Canton>
    </Peak>
    <Peak>
      <Name>Bockhorn</Name>
      <Longitude>9.85133311893</Longitude>
      <Latitude>46.9203630246</Latitude>
      <Altitude>2351</Altitude>
      <Canton>GR</Canton>
    </Peak>
    <Peak>
      <Name>Bocki</Name>
      <Longitude>8.24500641818</Longitude>
      <Latitude>46.8064709869</Latitude>
      <Altitude>2073</Altitude>
      <Canton>OW</Canton>
    </Peak>
    <Peak>
      <Name>Bockigrat</Name>
      <Longitude>8.34193007794</Longitude>
      <Latitude>46.8282360568</Latitude>
      <Altitude>2206</Altitude>
      <Canton>NW</Canton>
    </Peak>
    <Peak>
      <Name>Bockistock</Name>
      <Longitude>8.34598703385</Longitude>
      <Latitude>46.8317573446</Latitude>
      <Altitude>2223</Altitude>
      <Canton>NW</Canton>
    </Peak>
    <Peak>
      <Name>Bockmattli</Name>
      <Longitude>8.95886917484</Longitude>
      <Latitude>47.1006900824</Latitude>
      <Altitude>1932</Altitude>
      <Canton>SZ</Canton>
    </Peak>
    <Peak>
      <Name>Bockshorn</Name>
      <Longitude>7.9234979951</Longitude>
      <Latitude>46.9298609365</Latitude>
      <Altitude>1252</Altitude>
      <Canton>LU</Canton>
    </Peak>
    <Peak>
      <Name>Bocktenhorn</Name>
      <Longitude>9.90275506855</Longitude>
      <Latitude>46.7070513376</Latitude>
      <Altitude>3044</Altitude>
      <Canton>GR</Canton>
    </Peak>
    <Peak>
      <Name>Bocktschingel</Name>
      <Longitude>8.89360620677</Longitude>
      <Latitude>46.8491772219</Latitude>
      <Altitude>3079</Altitude>
      <Canton>GL/UR</Canton>
    </Peak>
    <Peak>
      <Name>Bocktschingelgrat</Name>
      <Longitude>8.83159228182</Longitude>
      <Latitude>46.8217893773</Latitude>
      <Altitude>3207</Altitude>
      <Canton>UR</Canton>
    </Peak>
    <Peak>
      <Name>Bodenhorn</Name>
      <Longitude>9.29717541644</Longitude>
      <Latitude>46.5942205396</Latitude>
      <Altitude>2698</Altitude>
      <Canton>GR</Canton>
    </Peak>
    <Peak>
      <Name>Bodezehore</Name>
      <Longitude>7.53892718135</Longitude>
      <Latitude>46.5266318044</Latitude>
      <Altitude>2354</Altitude>
      <Canton>BE</Canton>
    </Peak>
    <Peak>
      <Name>Bodmen</Name>
      <Longitude>7.76628308381</Longitude>
      <Latitude>46.1158665765</Latitude>
      <Altitude>2533</Altitude>
      <Canton>VS</Canton>
    </Peak>
    <Peak>
      <Name>Ober Bodmen</Name>
      <Longitude>9.11386912611</Longitude>
      <Latitude>46.5611207051</Latitude>
      <Altitude>2448</Altitude>
      <Canton>GR</Canton>
    </Peak>
    <Peak>
      <Name>Unter Bodmen</Name>
      <Longitude>9.11913382774</Longitude>
      <Latitude>46.5647320821</Latitude>
      <Altitude>2412</Altitude>
      <Canton>GR</Canton>
    </Peak>
    <Peak>
      <Name>Bodmerhorn</Name>
      <Longitude>8.03776579379</Longitude>
      <Latitude>46.1898667671</Latitude>
      <Altitude>2335</Altitude>
      <Canton>VS</Canton>
    </Peak>
    <Peak>
      <Name>Pointe de Boette</Name>
      <Longitude>7.46429316751</Longitude>
      <Latitude>45.935351632</Latitude>
      <Altitude>3541</Altitude>
      <Canton>VS/I</Canton>
    </Peak>
    <Peak>
      <Name>Corne du Boeuf</Name>
      <Longitude>7.66079987973</Longitude>
      <Latitude>46.2278035604</Latitude>
      <Altitude>2935</Altitude>
      <Canton>VS</Canton>
    </Peak>
    <Peak>
      <Name>Oeil de Boeuf</Name>
      <Longitude>6.89897552237</Longitude>
      <Latitude>46.070793184</Latitude>
      <Altitude>2653</Altitude>
      <Canton>VS</Canton>
    </Peak>
    <Peak>
      <Name>Sasso della Boggia</Name>
      <Longitude>8.61282997164</Longitude>
      <Latitude>46.5083776803</Latitude>
      <Altitude>2057</Altitude>
      <Canton>TI</Canton>
    </Peak>
    <Peak>
      <Name>Monte Boglia</Name>
      <Longitude>9.00748105348</Longitude>
      <Latitude>46.0297693922</Latitude>
      <Altitude>1516</Altitude>
      <Canton>TI</Canton>
    </Peak>
    <Peak>
      <Name>Poncione della Bolla</Name>
      <Longitude>8.59467435185</Longitude>
      <Latitude>46.466639701</Latitude>
      <Altitude>2616</Altitude>
      <Canton>TI</Canton>
    </Peak>
    <Peak>
      <Name>Spi da Bolscheras</Name>
      <Longitude>10.3368237071</Longitude>
      <Latitude>46.911347816</Latitude>
